$GPGGA,133730.000,6050.0040,N,00955.2430,E,1,00,,0.0,M,0.0,M,,0000*4C
$GPRMC,133730.000,A,6050.0040,N,00955.2430,E,000.00,0.0,040622,,,E*56
$GPGGA,133731.000,6050.0045,N,00955.2419,E,1,00,,0.0,M,0.0,M,,0000*43
$GPRMC,133731.000,A,6050.0045,N,00955.2419,E,000.00,0.0,040622,,,E*59
$GPGGA,133732.000,6050.0045,N,00955.2419,E,1,00,,0.0,M,0.0,M,,0000*40
$GPRMC,133732.000,A,6050.0045,N,00955.2419,E,000.00,0.0,040622,,,E*5A
$GPGGA,133733.000,6050.0045,N,00955.2420,E,1,00,,0.0,M,0.0,M,,0000*4B
$GPRMC,133733.000,A,6050.0045,N,00955.2420,E,000.00,0.0,040622,,,E*51
$GPGGA,133734.000,6050.0045,N,00955.2420,E,1,00,,0.0,M,0.0,M,,0000*4C
$GPRMC,133734.000,A,6050.0045,N,00955.2420,E,000.00,0.0,040622,,,E*56
$GPGGA,133735.000,6050.0045,N,00955.2420,E,1,00,,0.0,M,0.0,M,,0000*4D
$GPRMC,133735.000,A,6050.0045,N,00955.2420,E,000.00,0.0,040622,,,E*57
$GPGGA,133736.000,6050.0045,N,00955.2420,E,1,00,,0.0,M,0.0,M,,0000*4E
$GPRMC,133736.000,A,6050.0045,N,00955.2420,E,000.00,0.0,040622,,,E*54
$GPGGA,133737.000,6050.0045,N,00955.2420,E,1,00,,0.0,M,0.0,M,,0000*4F
$GPRMC,133737.000,A,6050.0045,N,00955.2420,E,000.00,0.0,040622,,,E*55
$GPGGA,133738.000,6050.0045,N,00955.2420,E,1,00,,0.0,M,0.0,M,,0000*40
$GPRMC,133738.000,A,6050.0045,N,00955.2420,E,000.00,0.0,040622,,,E*5A
$GPGGA,133739.000,6050.0045,N,00955.2420,E,1,00,,0.0,M,0.0,M,,0000*41
$GPRMC,133739.000,A,6050.0045,N,00955.2420,E,000.00,0.0,040622,,,E*5B
$GPGGA,133740.000,6050.0050,N,00955.2420,E,1,00,,0.0,M,0.0,M,,0000*4B
$GPRMC,133740.000,A,6050.0050,N,00955.2420,E,000.00,0.0,040622,,,E*51
$GPGGA,133741.000,6050.0050,N,00955.2420,E,1,00,,0.0,M,0.0,M,,0000*4A
$GPRMC,133741.000,A,6050.0050,N,00955.2420,E,000.00,0.0,040622,,,E*50
$GPGGA,133742.000,6050.0050,N,00955.2420,E,1,00,,0.0,M,0.0,M,,0000*49
$GPRMC,133742.000,A,6050.0050,N,00955.2420,E,000.00,0.0,040622,,,E*53
$GPGGA,133743.000,6050.0050,N,00955.2420,E,1,00,,0.0,M,0.0,M,,0000*48
$GPRMC,133743.000,A,6050.0050,N,00955.2420,E,000.00,0.0,040622,,,E*52
$GPGGA,133744.000,6050.0050,N,00955.2420,E,1,00,,0.0,M,0.0,M,,0000*4F
$GPRMC,133744.000,A,6050.0050,N,00955.2420,E,000.00,0.0,040622,,,E*55
$GPGGA,133745.000,6050.0050,N,00955.2420,E,1,00,,0.0,M,0.0,M,,0000*4E
$GPRMC,133745.000,A,6050.0050,N,00955.2420,E,000.00,0.0,040622,,,E*54
$GPGGA,133746.000,6050.0050,N,00955.2420,E,1,00,,0.0,M,0.0,M,,0000*4D
$GPRMC,133746.000,A,6050.0050,N,00955.2420,E,000.00,0.0,040622,,,E*57
$GPGGA,133747.000,6050.0050,N,00955.2420,E,1,00,,0.0,M,0.0,M,,0000*4C
$GPRMC,133747.000,A,6050.0050,N,00955.2420,E,000.00,0.0,040622,,,E*56
$GPGGA,133748.000,6050.0050,N,00955.2422,E,1,00,,0.0,M,0.0,M,,0000*41
$GPRMC,133748.000,A,6050.0050,N,00955.2422,E,000.00,0.0,040622,,,E*5B
$GPGGA,133749.000,6050.0045,N,00955.2424,E,1,00,,0.0,M,0.0,M,,0000*42
$GPRMC,133749.000,A,6050.0045,N,00955.2424,E,000.00,0.0,040622,,,E*58
$GPGGA,133750.000,6050.0040,N,00955.2425,E,1,00,,0.0,M,0.0,M,,0000*4E
$GPRMC,133750.000,A,6050.0040,N,00955.2425,E,000.00,0.0,040622,,,E*54
$GPGGA,133751.000,6050.0040,N,00955.2427,E,1,00,,0.0,M,0.0,M,,0000*4D
$GPRMC,133751.000,A,6050.0040,N,00955.2427,E,000.00,0.0,040622,,,E*57
$GPGGA,133752.000,6050.0036,N,00955.2428,E,1,00,,0.0,M,0.0,M,,0000*40
$GPRMC,133752.000,A,6050.0036,N,00955.2428,E,000.00,0.0,040622,,,E*5A
$GPGGA,133753.000,6050.0036,N,00955.2429,E,1,00,,0.0,M,0.0,M,,0000*40
$GPRMC,133753.000,A,6050.0036,N,00955.2429,E,000.00,0.0,040622,,,E*5A
$GPGGA,133754.000,6050.0034,N,00955.2430,E,1,00,,0.0,M,0.0,M,,0000*4D
$GPRMC,133754.000,A,6050.0034,N,00955.2430,E,000.00,0.0,040622,,,E*57
$GPGGA,133755.000,6050.0034,N,00955.2430,E,1,00,,0.0,M,0.0,M,,0000*4C
$GPRMC,133755.000,A,6050.0034,N,00955.2430,E,000.00,0.0,040622,,,E*56
$GPGGA,133756.000,6050.0034,N,00955.2430,E,1,00,,0.0,M,0.0,M,,0000*4F
$GPRMC,133756.000,A,6050.0034,N,00955.2430,E,000.00,0.0,040622,,,E*55
$GPGGA,133757.000,6050.0034,N,00955.2430,E,1,00,,0.0,M,0.0,M,,0000*4E
$GPRMC,133757.000,A,6050.0034,N,00955.2430,E,000.00,0.0,040622,,,E*54
$GPGGA,133758.000,6050.0034,N,00955.2430,E,1,00,,0.0,M,0.0,M,,0000*41
$GPRMC,133758.000,A,6050.0034,N,00955.2430,E,000.00,0.0,040622,,,E*5B
$GPGGA,133759.000,6050.0036,N,00955.2430,E,1,00,,0.0,M,0.0,M,,0000*42
$GPRMC,133759.000,A,6050.0036,N,00955.2430,E,000.00,0.0,040622,,,E*58
$GPGGA,133800.000,6050.0036,N,00955.2430,E,1,00,,0.0,M,0.0,M,,0000*41
$GPRMC,133800.000,A,6050.0036,N,00955.2430,E,000.00,0.0,040622,,,E*5B
$GPGGA,133801.000,6050.0036,N,00955.2430,E,1,00,,0.0,M,0.0,M,,0000*40
$GPRMC,133801.000,A,6050.0036,N,00955.2430,E,000.00,0.0,040622,,,E*5A
$GPGGA,133802.000,6050.0036,N,00955.2430,E,1,00,,0.0,M,0.0,M,,0000*43
$GPRMC,133802.000,A,6050.0036,N,00955.2430,E,000.00,0.0,040622,,,E*59
$GPGGA,133803.000,6050.0036,N,00955.2430,E,1,00,,0.0,M,0.0,M,,0000*42
$GPRMC,133803.000,A,6050.0036,N,00955.2430,E,000.00,0.0,040622,,,E*58
$GPGGA,133804.000,6050.0036,N,00955.2430,E,1,00,,0.0,M,0.0,M,,0000*45
$GPRMC,133804.000,A,6050.0036,N,00955.2430,E,000.00,0.0,040622,,,E*5F
$GPGGA,133805.000,6050.0036,N,00955.2431,E,1,00,,0.0,M,0.0,M,,0000*45
$GPRMC,133805.000,A,6050.0036,N,00955.2431,E,000.00,0.0,040622,,,E*5F
$GPGGA,133806.000,6050.0036,N,00955.2431,E,1,00,,0.0,M,0.0,M,,0000*46
$GPRMC,133806.000,A,6050.0036,N,00955.2431,E,000.00,0.0,040622,,,E*5C
$GPGGA,133807.000,6050.0036,N,00955.2431,E,1,00,,0.0,M,0.0,M,,0000*47
$GPRMC,133807.000,A,6050.0036,N,00955.2431,E,000.00,0.0,040622,,,E*5D
$GPGGA,133808.000,6050.0036,N,00955.2431,E,1,00,,0.0,M,0.0,M,,0000*48
$GPRMC,133808.000,A,6050.0036,N,00955.2431,E,000.00,0.0,040622,,,E*52
$GPGGA,133809.000,6050.0040,N,00955.2431,E,1,00,,0.0,M,0.0,M,,0000*48
$GPRMC,133809.000,A,6050.0040,N,00955.2431,E,000.00,0.0,040622,,,E*52
$GPGGA,133810.000,6050.0040,N,00955.2431,E,1,00,,0.0,M,0.0,M,,0000*40
$GPRMC,133810.000,A,6050.0040,N,00955.2431,E,000.00,0.0,040622,,,E*5A
$GPGGA,133811.000,6050.0040,N,00955.2431,E,1,00,,0.0,M,0.0,M,,0000*41
$GPRMC,133811.000,A,6050.0040,N,00955.2431,E,000.00,0.0,040622,,,E*5B
$GPGGA,133812.000,6050.0040,N,00955.2431,E,1,00,,0.0,M,0.0,M,,0000*42
$GPRMC,133812.000,A,6050.0040,N,00955.2431,E,000.00,0.0,040622,,,E*58
$GPGGA,133813.000,6050.0040,N,00955.2431,E,1,00,,0.0,M,0.0,M,,0000*43
$GPRMC,133813.000,A,6050.0040,N,00955.2431,E,000.00,0.0,040622,,,E*59
$GPGGA,133814.000,6050.0045,N,00955.2431,E,1,00,,0.0,M,0.0,M,,0000*41
$GPRMC,133814.000,A,6050.0045,N,00955.2431,E,000.00,0.0,040622,,,E*5B
$GPGGA,133815.000,6050.0045,N,00955.2431,E,1,00,,0.0,M,0.0,M,,0000*40
$GPRMC,133815.000,A,6050.0045,N,00955.2431,E,000.00,0.0,040622,,,E*5A
$GPGGA,133816.000,6050.0045,N,00955.2431,E,1,00,,0.0,M,0.0,M,,0000*43
$GPRMC,133816.000,A,6050.0045,N,00955.2431,E,000.00,0.0,040622,,,E*59
$GPGGA,133817.000,6050.0045,N,00955.2431,E,1,00,,0.0,M,0.0,M,,0000*42
$GPRMC,133817.000,A,6050.0045,N,00955.2431,E,000.00,0.0,040622,,,E*58
$GPGGA,133818.000,6050.0045,N,00955.2431,E,1,00,,0.0,M,0.0,M,,0000*4D
$GPRMC,133818.000,A,6050.0045,N,00955.2431,E,000.00,0.0,040622,,,E*57
$GPGGA,133819.000,6050.0045,N,00955.2432,E,1,00,,0.0,M,0.0,M,,0000*4F
$GPRMC,133819.000,A,6050.0045,N,00955.2432,E,000.00,0.0,040622,,,E*55
$GPGGA,133820.000,6050.0045,N,00955.2433,E,1,00,,0.0,M,0.0,M,,0000*44
$GPRMC,133820.000,A,6050.0045,N,00955.2433,E,000.00,0.0,040622,,,E*5E
$GPGGA,133821.000,6050.0045,N,00955.2433,E,1,00,,0.0,M,0.0,M,,0000*45
$GPRMC,133821.000,A,6050.0045,N,00955.2433,E,000.00,0.0,040622,,,E*5F
$GPGGA,133822.000,6050.0045,N,00955.2433,E,1,00,,0.0,M,0.0,M,,0000*46
$GPRMC,133822.000,A,6050.0045,N,00955.2433,E,000.00,0.0,040622,,,E*5C
$GPGGA,133823.000,6050.0045,N,00955.2434,E,1,00,,0.0,M,0.0,M,,0000*40
$GPRMC,133823.000,A,6050.0045,N,00955.2434,E,000.00,0.0,040622,,,E*5A
$GPGGA,133824.000,6050.0045,N,00955.2434,E,1,00,,0.0,M,0.0,M,,0000*47
$GPRMC,133824.000,A,6050.0045,N,00955.2434,E,000.00,0.0,040622,,,E*5D
$GPGGA,133825.000,6050.0045,N,00955.2434,E,1,00,,0.0,M,0.0,M,,0000*46
$GPRMC,133825.000,A,6050.0045,N,00955.2434,E,000.00,0.0,040622,,,E*5C
$GPGGA,133826.000,6050.0045,N,00955.2434,E,1,00,,0.0,M,0.0,M,,0000*45
$GPRMC,133826.000,A,6050.0045,N,00955.2434,E,000.00,0.0,040622,,,E*5F
$GPGGA,133827.000,6050.0045,N,00955.2434,E,1,00,,0.0,M,0.0,M,,0000*44
$GPRMC,133827.000,A,6050.0045,N,00955.2434,E,000.00,0.0,040622,,,E*5E
$GPGGA,133828.000,6050.0050,N,00955.2434,E,1,00,,0.0,M,0.0,M,,0000*4F
$GPRMC,133828.000,A,6050.0050,N,00955.2434,E,000.00,0.0,040622,,,E*55
$GPGGA,133829.000,6050.0050,N,00955.2435,E,1,00,,0.0,M,0.0,M,,0000*4F
$GPRMC,133829.000,A,6050.0050,N,00955.2435,E,000.00,0.0,040622,,,E*55
$GPGGA,133830.000,6050.0050,N,00955.2435,E,1,00,,0.0,M,0.0,M,,0000*47
$GPRMC,133830.000,A,6050.0050,N,00955.2435,E,000.00,0.0,040622,,,E*5D
$GPGGA,133831.000,6050.0050,N,00955.2435,E,1,00,,0.0,M,0.0,M,,0000*46
$GPRMC,133831.000,A,6050.0050,N,00955.2435,E,000.00,0.0,040622,,,E*5C
$GPGGA,133832.000,6050.0050,N,00955.2435,E,1,00,,0.0,M,0.0,M,,0000*45
$GPRMC,133832.000,A,6050.0050,N,00955.2435,E,000.00,0.0,040622,,,E*5F
$GPGGA,133833.000,6050.0050,N,00955.2436,E,1,00,,0.0,M,0.0,M,,0000*47
$GPRMC,133833.000,A,6050.0050,N,00955.2436,E,000.00,0.0,040622,,,E*5D
$GPGGA,133834.000,6050.0050,N,00955.2436,E,1,00,,0.0,M,0.0,M,,0000*40
$GPRMC,133834.000,A,6050.0050,N,00955.2436,E,000.00,0.0,040622,,,E*5A
$GPGGA,133835.000,6050.0050,N,00955.2437,E,1,00,,0.0,M,0.0,M,,0000*40
$GPRMC,133835.000,A,6050.0050,N,00955.2437,E,000.00,0.0,040622,,,E*5A
$GPGGA,133836.000,6050.0050,N,00955.2437,E,1,00,,0.0,M,0.0,M,,0000*43
$GPRMC,133836.000,A,6050.0050,N,00955.2437,E,000.00,0.0,040622,,,E*59
$GPGGA,133837.000,6050.0050,N,00955.2437,E,1,00,,0.0,M,0.0,M,,0000*42
$GPRMC,133837.000,A,6050.0050,N,00955.2437,E,000.00,0.0,040622,,,E*58
$GPGGA,133838.000,6050.0050,N,00955.2438,E,1,00,,0.0,M,0.0,M,,0000*42
$GPRMC,133838.000,A,6050.0050,N,00955.2438,E,000.00,0.0,040622,,,E*58
$GPGGA,133839.000,6050.0050,N,00955.2438,E,1,00,,0.0,M,0.0,M,,0000*43
$GPRMC,133839.000,A,6050.0050,N,00955.2438,E,000.00,0.0,040622,,,E*59
$GPGGA,133840.000,6050.0050,N,00955.2439,E,1,00,,0.0,M,0.0,M,,0000*4C
$GPRMC,133840.000,A,6050.0050,N,00955.2439,E,000.00,0.0,040622,,,E*56
$GPGGA,133841.000,6050.0050,N,00955.2439,E,1,00,,0.0,M,0.0,M,,0000*4D
$GPRMC,133841.000,A,6050.0050,N,00955.2439,E,000.00,0.0,040622,,,E*57
$GPGGA,133842.000,6050.0050,N,00955.2440,E,1,00,,0.0,M,0.0,M,,0000*40
$GPRMC,133842.000,A,6050.0050,N,00955.2440,E,000.00,0.0,040622,,,E*5A
$GPGGA,133843.000,6050.0050,N,00955.2441,E,1,00,,0.0,M,0.0,M,,0000*40
$GPRMC,133843.000,A,6050.0050,N,00955.2441,E,000.00,0.0,040622,,,E*5A
$GPGGA,133844.000,6050.0050,N,00955.2441,E,1,00,,0.0,M,0.0,M,,0000*47
$GPRMC,133844.000,A,6050.0050,N,00955.2441,E,000.00,0.0,040622,,,E*5D
$GPGGA,133845.000,6050.0050,N,00955.2442,E,1,00,,0.0,M,0.0,M,,0000*45
$GPRMC,133845.000,A,6050.0050,N,00955.2442,E,000.00,0.0,040622,,,E*5F
$GPGGA,133846.000,6050.0045,N,00955.2442,E,1,00,,0.0,M,0.0,M,,0000*42
$GPRMC,133846.000,A,6050.0045,N,00955.2442,E,000.00,0.0,040622,,,E*58
$GPGGA,133847.000,6050.0045,N,00955.2443,E,1,00,,0.0,M,0.0,M,,0000*42
$GPRMC,133847.000,A,6050.0045,N,00955.2443,E,000.00,0.0,040622,,,E*58
$GPGGA,133848.000,6050.0045,N,00955.2444,E,1,00,,0.0,M,0.0,M,,0000*4A
$GPRMC,133848.000,A,6050.0045,N,00955.2444,E,000.00,0.0,040622,,,E*50
$GPGGA,133849.000,6050.0045,N,00955.2444,E,1,00,,0.0,M,0.0,M,,0000*4B
$GPRMC,133849.000,A,6050.0045,N,00955.2444,E,000.00,0.0,040622,,,E*51
$GPGGA,133850.000,6050.0050,N,00955.2444,E,1,00,,0.0,M,0.0,M,,0000*47
$GPRMC,133850.000,A,6050.0050,N,00955.2444,E,000.00,0.0,040622,,,E*5D
$GPGGA,133851.000,6050.0050,N,00955.2444,E,1,00,,0.0,M,0.0,M,,0000*46
$GPRMC,133851.000,A,6050.0050,N,00955.2444,E,000.00,0.0,040622,,,E*5C
$GPGGA,133852.000,6050.0045,N,00955.2444,E,1,00,,0.0,M,0.0,M,,0000*41
$GPRMC,133852.000,A,6050.0045,N,00955.2444,E,000.00,0.0,040622,,,E*5B
$GPGGA,133853.000,6050.0045,N,00955.2444,E,1,00,,0.0,M,0.0,M,,0000*40
$GPRMC,133853.000,A,6050.0045,N,00955.2444,E,000.00,0.0,040622,,,E*5A
$GPGGA,133854.000,6050.0045,N,00955.2445,E,1,00,,0.0,M,0.0,M,,0000*46
$GPRMC,133854.000,A,6050.0045,N,00955.2445,E,000.00,0.0,040622,,,E*5C
$GPGGA,133855.000,6050.0045,N,00955.2445,E,1,00,,0.0,M,0.0,M,,0000*47
$GPRMC,133855.000,A,6050.0045,N,00955.2445,E,000.00,0.0,040622,,,E*5D
$GPGGA,133856.000,6050.0045,N,00955.2445,E,1,00,,0.0,M,0.0,M,,0000*44
$GPRMC,133856.000,A,6050.0045,N,00955.2445,E,000.00,0.0,040622,,,E*5E
$GPGGA,133857.000,6050.0045,N,00955.2445,E,1,00,,0.0,M,0.0,M,,0000*45
$GPRMC,133857.000,A,6050.0045,N,00955.2445,E,000.00,0.0,040622,,,E*5F
$GPGGA,133858.000,6050.0045,N,00955.2445,E,1,00,,0.0,M,0.0,M,,0000*4A
$GPRMC,133858.000,A,6050.0045,N,00955.2445,E,000.00,0.0,040622,,,E*50
$GPGGA,133859.000,6050.0045,N,00955.2445,E,1,00,,0.0,M,0.0,M,,0000*4B
$GPRMC,133859.000,A,6050.0045,N,00955.2445,E,000.00,0.0,040622,,,E*51
$GPGGA,133900.000,6050.0045,N,00955.2445,E,1,00,,0.0,M,0.0,M,,0000*46
$GPRMC,133900.000,A,6050.0045,N,00955.2445,E,000.00,0.0,040622,,,E*5C
$GPGGA,133901.000,6050.0045,N,00955.2446,E,1,00,,0.0,M,0.0,M,,0000*44
$GPRMC,133901.000,A,6050.0045,N,00955.2446,E,000.00,0.0,040622,,,E*5E
$GPGGA,133902.000,6050.0045,N,00955.2446,E,1,00,,0.0,M,0.0,M,,0000*47
$GPRMC,133902.000,A,6050.0045,N,00955.2446,E,000.00,0.0,040622,,,E*5D
$GPGGA,133903.000,6050.0045,N,00955.2446,E,1,00,,0.0,M,0.0,M,,0000*46
$GPRMC,133903.000,A,6050.0045,N,00955.2446,E,000.00,0.0,040622,,,E*5C
$GPGGA,133904.000,6050.0045,N,00955.2446,E,1,00,,0.0,M,0.0,M,,0000*41
$GPRMC,133904.000,A,6050.0045,N,00955.2446,E,000.00,0.0,040622,,,E*5B
$GPGGA,133905.000,6050.0045,N,00955.2446,E,1,00,,0.0,M,0.0,M,,0000*40
$GPRMC,133905.000,A,6050.0045,N,00955.2446,E,000.00,0.0,040622,,,E*5A
$GPGGA,133906.000,6050.0045,N,00955.2447,E,1,00,,0.0,M,0.0,M,,0000*42
$GPRMC,133906.000,A,6050.0045,N,00955.2447,E,000.00,0.0,040622,,,E*58
$GPGGA,133907.000,6050.0045,N,00955.2447,E,1,00,,0.0,M,0.0,M,,0000*43
$GPRMC,133907.000,A,6050.0045,N,00955.2447,E,000.00,0.0,040622,,,E*59
$GPGGA,133908.000,6050.0045,N,00955.2447,E,1,00,,0.0,M,0.0,M,,0000*4C
$GPRMC,133908.000,A,6050.0045,N,00955.2447,E,000.00,0.0,040622,,,E*56
$GPGGA,133909.000,6050.0040,N,00955.2448,E,1,00,,0.0,M,0.0,M,,0000*47
$GPRMC,133909.000,A,6050.0040,N,00955.2448,E,000.00,0.0,040622,,,E*5D
$GPGGA,133910.000,6050.0040,N,00955.2449,E,1,00,,0.0,M,0.0,M,,0000*4E
$GPRMC,133910.000,A,6050.0040,N,00955.2449,E,000.00,0.0,040622,,,E*54
$GPGGA,133911.000,6050.0040,N,00955.2449,E,1,00,,0.0,M,0.0,M,,0000*4F
$GPRMC,133911.000,A,6050.0040,N,00955.2449,E,000.00,0.0,040622,,,E*55
$GPGGA,133912.000,6050.0040,N,00955.2450,E,1,00,,0.0,M,0.0,M,,0000*44
$GPRMC,133912.000,A,6050.0040,N,00955.2450,E,000.00,0.0,040622,,,E*5E
$GPGGA,133913.000,6050.0040,N,00955.2450,E,1,00,,0.0,M,0.0,M,,0000*45
$GPRMC,133913.000,A,6050.0040,N,00955.2450,E,000.00,0.0,040622,,,E*5F
$GPGGA,133914.000,6050.0040,N,00955.2450,E,1,00,,0.0,M,0.0,M,,0000*42
$GPRMC,133914.000,A,6050.0040,N,00955.2450,E,000.00,0.0,040622,,,E*58
$GPGGA,133915.000,6050.0036,N,00955.2450,E,1,00,,0.0,M,0.0,M,,0000*42
$GPRMC,133915.000,A,6050.0036,N,00955.2450,E,000.00,0.0,040622,,,E*58
$GPGGA,133916.000,6050.0036,N,00955.2451,E,1,00,,0.0,M,0.0,M,,0000*40
$GPRMC,133916.000,A,6050.0036,N,00955.2451,E,000.00,0.0,040622,,,E*5A
$GPGGA,133917.000,6050.0036,N,00955.2451,E,1,00,,0.0,M,0.0,M,,0000*41
$GPRMC,133917.000,A,6050.0036,N,00955.2451,E,000.00,0.0,040622,,,E*5B
$GPGGA,133918.000,6050.0036,N,00955.2451,E,1,00,,0.0,M,0.0,M,,0000*4E
$GPRMC,133918.000,A,6050.0036,N,00955.2451,E,000.00,0.0,040622,,,E*54
$GPGGA,133919.000,6050.0036,N,00955.2452,E,1,00,,0.0,M,0.0,M,,0000*4C
$GPRMC,133919.000,A,6050.0036,N,00955.2452,E,000.00,0.0,040622,,,E*56
$GPGGA,133920.000,6050.0036,N,00955.2452,E,1,00,,0.0,M,0.0,M,,0000*46
$GPRMC,133920.000,A,6050.0036,N,00955.2452,E,000.00,0.0,040622,,,E*5C
$GPGGA,133921.000,6050.0036,N,00955.2452,E,1,00,,0.0,M,0.0,M,,0000*47
$GPRMC,133921.000,A,6050.0036,N,00955.2452,E,000.00,0.0,040622,,,E*5D
$GPGGA,133922.000,6050.0036,N,00955.2452,E,1,00,,0.0,M,0.0,M,,0000*44
$GPRMC,133922.000,A,6050.0036,N,00955.2452,E,000.00,0.0,040622,,,E*5E
$GPGGA,133923.000,6050.0036,N,00955.2452,E,1,00,,0.0,M,0.0,M,,0000*45
$GPRMC,133923.000,A,6050.0036,N,00955.2452,E,000.00,0.0,040622,,,E*5F
$GPGGA,133924.000,6050.0036,N,00955.2452,E,1,00,,0.0,M,0.0,M,,0000*42
$GPRMC,133924.000,A,6050.0036,N,00955.2452,E,000.00,0.0,040622,,,E*58
$GPGGA,133925.000,6050.0036,N,00955.2452,E,1,00,,0.0,M,0.0,M,,0000*43
$GPRMC,133925.000,A,6050.0036,N,00955.2452,E,000.00,0.0,040622,,,E*59
$GPGGA,133926.000,6050.0036,N,00955.2452,E,1,00,,0.0,M,0.0,M,,0000*40
$GPRMC,133926.000,A,6050.0036,N,00955.2452,E,000.00,0.0,040622,,,E*5A
$GPGGA,133927.000,6050.0036,N,00955.2452,E,1,00,,0.0,M,0.0,M,,0000*41
$GPRMC,133927.000,A,6050.0036,N,00955.2452,E,000.00,0.0,040622,,,E*5B
$GPGGA,133928.000,6050.0036,N,00955.2452,E,1,00,,0.0,M,0.0,M,,0000*4E
$GPRMC,133928.000,A,6050.0036,N,00955.2452,E,000.00,0.0,040622,,,E*54
$GPGGA,133929.000,6050.0036,N,00955.2452,E,1,00,,0.0,M,0.0,M,,0000*4F
$GPRMC,133929.000,A,6050.0036,N,00955.2452,E,000.00,0.0,040622,,,E*55
$GPGGA,133930.000,6050.0036,N,00955.2452,E,1,00,,0.0,M,0.0,M,,0000*47
$GPRMC,133930.000,A,6050.0036,N,00955.2452,E,000.00,0.0,040622,,,E*5D
$GPGGA,133931.000,6050.0036,N,00955.2451,E,1,00,,0.0,M,0.0,M,,0000*45
$GPRMC,133931.000,A,6050.0036,N,00955.2451,E,000.00,0.0,040622,,,E*5F
$GPGGA,133932.000,6050.0034,N,00955.2450,E,1,00,,0.0,M,0.0,M,,0000*45
$GPRMC,133932.000,A,6050.0034,N,00955.2450,E,000.00,0.0,040622,,,E*5F
$GPGGA,133933.000,6050.0034,N,00955.2449,E,1,00,,0.0,M,0.0,M,,0000*4C
$GPRMC,133933.000,A,6050.0034,N,00955.2449,E,000.00,0.0,040622,,,E*56
$GPGGA,133934.000,6050.0034,N,00955.2449,E,1,00,,0.0,M,0.0,M,,0000*4B
$GPRMC,133934.000,A,6050.0034,N,00955.2449,E,000.00,0.0,040622,,,E*51
$GPGGA,133935.000,6050.0034,N,00955.2448,E,1,00,,0.0,M,0.0,M,,0000*4B
$GPRMC,133935.000,A,6050.0034,N,00955.2448,E,000.00,0.0,040622,,,E*51
$GPGGA,133936.000,6050.0034,N,00955.2448,E,1,00,,0.0,M,0.0,M,,0000*48
$GPRMC,133936.000,A,6050.0034,N,00955.2448,E,000.00,0.0,040622,,,E*52
$GPGGA,133937.000,6050.0034,N,00955.2447,E,1,00,,0.0,M,0.0,M,,0000*46
$GPRMC,133937.000,A,6050.0034,N,00955.2447,E,000.00,0.0,040622,,,E*5C
$GPGGA,133938.000,6050.0034,N,00955.2446,E,1,00,,0.0,M,0.0,M,,0000*48
$GPRMC,133938.000,A,6050.0034,N,00955.2446,E,000.00,0.0,040622,,,E*52
$GPGGA,133939.000,6050.0034,N,00955.2446,E,1,00,,0.0,M,0.0,M,,0000*49
$GPRMC,133939.000,A,6050.0034,N,00955.2446,E,000.00,0.0,040622,,,E*53
$GPGGA,133940.000,6050.0034,N,00955.2445,E,1,00,,0.0,M,0.0,M,,0000*44
$GPRMC,133940.000,A,6050.0034,N,00955.2445,E,000.00,0.0,040622,,,E*5E
$GPGGA,133941.000,6050.0034,N,00955.2445,E,1,00,,0.0,M,0.0,M,,0000*45
$GPRMC,133941.000,A,6050.0034,N,00955.2445,E,000.00,0.0,040622,,,E*5F
$GPGGA,133942.000,6050.0034,N,00955.2444,E,1,00,,0.0,M,0.0,M,,0000*47
$GPRMC,133942.000,A,6050.0034,N,00955.2444,E,000.00,0.0,040622,,,E*5D
$GPGGA,133943.000,6050.0034,N,00955.2444,E,1,00,,0.0,M,0.0,M,,0000*46
$GPRMC,133943.000,A,6050.0034,N,00955.2444,E,000.00,0.0,040622,,,E*5C
$GPGGA,133944.000,6050.0034,N,00955.2444,E,1,00,,0.0,M,0.0,M,,0000*41
$GPRMC,133944.000,A,6050.0034,N,00955.2444,E,000.00,0.0,040622,,,E*5B
$GPGGA,133945.000,6050.0029,N,00955.2444,E,1,00,,0.0,M,0.0,M,,0000*4C
$GPRMC,133945.000,A,6050.0029,N,00955.2444,E,000.00,0.0,040622,,,E*56
$GPGGA,133946.000,6050.0029,N,00955.2444,E,1,00,,0.0,M,0.0,M,,0000*4F
$GPRMC,133946.000,A,6050.0029,N,00955.2444,E,000.00,0.0,040622,,,E*55
$GPGGA,133947.000,6050.0029,N,00955.2443,E,1,00,,0.0,M,0.0,M,,0000*49
$GPRMC,133947.000,A,6050.0029,N,00955.2443,E,000.00,0.0,040622,,,E*53
$GPGGA,133948.000,6050.0029,N,00955.2443,E,1,00,,0.0,M,0.0,M,,0000*46
$GPRMC,133948.000,A,6050.0029,N,00955.2443,E,000.00,0.0,040622,,,E*5C
$GPGGA,133949.000,6050.0029,N,00955.2442,E,1,00,,0.0,M,0.0,M,,0000*46
$GPRMC,133949.000,A,6050.0029,N,00955.2442,E,000.00,0.0,040622,,,E*5C
$GPGGA,133950.000,6050.0029,N,00955.2442,E,1,00,,0.0,M,0.0,M,,0000*4E
$GPRMC,133950.000,A,6050.0029,N,00955.2442,E,000.00,0.0,040622,,,E*54
$GPGGA,133951.000,6050.0029,N,00955.2442,E,1,00,,0.0,M,0.0,M,,0000*4F
$GPRMC,133951.000,A,6050.0029,N,00955.2442,E,000.00,0.0,040622,,,E*55
$GPGGA,133952.000,6050.0029,N,00955.2442,E,1,00,,0.0,M,0.0,M,,0000*4C
$GPRMC,133952.000,A,6050.0029,N,00955.2442,E,000.00,0.0,040622,,,E*56
$GPGGA,133953.000,6050.0029,N,00955.2442,E,1,00,,0.0,M,0.0,M,,0000*4D
$GPRMC,133953.000,A,6050.0029,N,00955.2442,E,000.00,0.0,040622,,,E*57
$GPGGA,133954.000,6050.0029,N,00955.2441,E,1,00,,0.0,M,0.0,M,,0000*49
$GPRMC,133954.000,A,6050.0029,N,00955.2441,E,000.00,0.0,040622,,,E*53
$GPGGA,133955.000,6050.0029,N,00955.2441,E,1,00,,0.0,M,0.0,M,,0000*48
$GPRMC,133955.000,A,6050.0029,N,00955.2441,E,000.00,0.0,040622,,,E*52
$GPGGA,133956.000,6050.0029,N,00955.2441,E,1,00,,0.0,M,0.0,M,,0000*4B
$GPRMC,133956.000,A,6050.0029,N,00955.2441,E,000.00,0.0,040622,,,E*51
$GPGGA,133957.000,6050.0029,N,00955.2441,E,1,00,,0.0,M,0.0,M,,0000*4A
$GPRMC,133957.000,A,6050.0029,N,00955.2441,E,000.00,0.0,040622,,,E*50
$GPGGA,133958.000,6050.0029,N,00955.2441,E,1,00,,0.0,M,0.0,M,,0000*45
$GPRMC,133958.000,A,6050.0029,N,00955.2441,E,000.00,0.0,040622,,,E*5F
$GPGGA,133959.000,6050.0024,N,00955.2441,E,1,00,,0.0,M,0.0,M,,0000*49
$GPRMC,133959.000,A,6050.0024,N,00955.2441,E,000.00,0.0,040622,,,E*53
$GPGGA,134000.000,6050.0024,N,00955.2440,E,1,00,,0.0,M,0.0,M,,0000*4A
$GPRMC,134000.000,A,6050.0024,N,00955.2440,E,000.00,0.0,040622,,,E*50
$GPGGA,134001.000,6050.0024,N,00955.2440,E,1,00,,0.0,M,0.0,M,,0000*4B
$GPRMC,134001.000,A,6050.0024,N,00955.2440,E,000.00,0.0,040622,,,E*51
$GPGGA,134002.000,6050.0024,N,00955.2440,E,1,00,,0.0,M,0.0,M,,0000*48
$GPRMC,134002.000,A,6050.0024,N,00955.2440,E,000.00,0.0,040622,,,E*52
$GPGGA,134003.000,6050.0024,N,00955.2440,E,1,00,,0.0,M,0.0,M,,0000*49
$GPRMC,134003.000,A,6050.0024,N,00955.2440,E,000.00,0.0,040622,,,E*53
$GPGGA,134004.000,6050.0024,N,00955.2440,E,1,00,,0.0,M,0.0,M,,0000*4E
$GPRMC,134004.000,A,6050.0024,N,00955.2440,E,000.00,0.0,040622,,,E*54
$GPGGA,134005.000,6050.0024,N,00955.2439,E,1,00,,0.0,M,0.0,M,,0000*41
$GPRMC,134005.000,A,6050.0024,N,00955.2439,E,000.00,0.0,040622,,,E*5B
$GPGGA,134006.000,6050.0024,N,00955.2439,E,1,00,,0.0,M,0.0,M,,0000*42
$GPRMC,134006.000,A,6050.0024,N,00955.2439,E,000.00,0.0,040622,,,E*58
$GPGGA,134007.000,6050.0024,N,00955.2439,E,1,00,,0.0,M,0.0,M,,0000*43
$GPRMC,134007.000,A,6050.0024,N,00955.2439,E,000.00,0.0,040622,,,E*59
$GPGGA,134008.000,6050.0024,N,00955.2439,E,1,00,,0.0,M,0.0,M,,0000*4C
$GPRMC,134008.000,A,6050.0024,N,00955.2439,E,000.00,0.0,040622,,,E*56
$GPGGA,134009.000,6050.0024,N,00955.2439,E,1,00,,0.0,M,0.0,M,,0000*4D
$GPRMC,134009.000,A,6050.0024,N,00955.2439,E,000.00,0.0,040622,,,E*57
$GPGGA,134010.000,6050.0024,N,00955.2439,E,1,00,,0.0,M,0.0,M,,0000*45
$GPRMC,134010.000,A,6050.0024,N,00955.2439,E,000.00,0.0,040622,,,E*5F
$GPGGA,134011.000,6050.0029,N,00955.2439,E,1,00,,0.0,M,0.0,M,,0000*49
$GPRMC,134011.000,A,6050.0029,N,00955.2439,E,000.00,0.0,040622,,,E*53
$GPGGA,134012.000,6050.0029,N,00955.2438,E,1,00,,0.0,M,0.0,M,,0000*4B
$GPRMC,134012.000,A,6050.0029,N,00955.2438,E,000.00,0.0,040622,,,E*51
$GPGGA,134013.000,6050.0029,N,00955.2438,E,1,00,,0.0,M,0.0,M,,0000*4A
$GPRMC,134013.000,A,6050.0029,N,00955.2438,E,000.00,0.0,040622,,,E*50
$GPGGA,134014.000,6050.0029,N,00955.2438,E,1,00,,0.0,M,0.0,M,,0000*4D
$GPRMC,134014.000,A,6050.0029,N,00955.2438,E,000.00,0.0,040622,,,E*57
$GPGGA,134015.000,6050.0029,N,00955.2438,E,1,00,,0.0,M,0.0,M,,0000*4C
$GPRMC,134015.000,A,6050.0029,N,00955.2438,E,000.00,0.0,040622,,,E*56
$GPGGA,134016.000,6050.0029,N,00955.2438,E,1,00,,0.0,M,0.0,M,,0000*4F
$GPRMC,134016.000,A,6050.0029,N,00955.2438,E,000.00,0.0,040622,,,E*55
$GPGGA,134017.000,6050.0029,N,00955.2437,E,1,00,,0.0,M,0.0,M,,0000*41
$GPRMC,134017.000,A,6050.0029,N,00955.2437,E,000.00,0.0,040622,,,E*5B
$GPGGA,134018.000,6050.0024,N,00955.2439,E,1,00,,0.0,M,0.0,M,,0000*4D
$GPRMC,134018.000,A,6050.0024,N,00955.2439,E,000.00,0.0,040622,,,E*57
$GPGGA,134019.000,6050.0024,N,00955.2440,E,1,00,,0.0,M,0.0,M,,0000*42
$GPRMC,134019.000,A,6050.0024,N,00955.2440,E,000.00,0.0,040622,,,E*58
$GPGGA,134020.000,6050.0020,N,00955.2441,E,1,00,,0.0,M,0.0,M,,0000*4D
$GPRMC,134020.000,A,6050.0020,N,00955.2441,E,000.00,0.0,040622,,,E*57
$GPGGA,134021.000,6050.0020,N,00955.2442,E,1,00,,0.0,M,0.0,M,,0000*4F
$GPRMC,134021.000,A,6050.0020,N,00955.2442,E,000.00,0.0,040622,,,E*55
$GPGGA,134022.000,6050.0015,N,00955.2443,E,1,00,,0.0,M,0.0,M,,0000*4B
$GPRMC,134022.000,A,6050.0015,N,00955.2443,E,000.00,0.0,040622,,,E*51
$GPGGA,134023.000,6050.0015,N,00955.2444,E,1,00,,0.0,M,0.0,M,,0000*4D
$GPRMC,134023.000,A,6050.0015,N,00955.2444,E,000.00,0.0,040622,,,E*57
$GPGGA,134024.000,6050.0013,N,00955.2444,E,1,00,,0.0,M,0.0,M,,0000*4C
$GPRMC,134024.000,A,6050.0013,N,00955.2444,E,000.00,0.0,040622,,,E*56
$GPGGA,134025.000,6050.0013,N,00955.2445,E,1,00,,0.0,M,0.0,M,,0000*4C
$GPRMC,134025.000,A,6050.0013,N,00955.2445,E,000.00,0.0,040622,,,E*56
$GPGGA,134026.000,6050.0013,N,00955.2446,E,1,00,,0.0,M,0.0,M,,0000*4C
$GPRMC,134026.000,A,6050.0013,N,00955.2446,E,000.00,0.0,040622,,,E*56
$GPGGA,134027.000,6050.0008,N,00955.2447,E,1,00,,0.0,M,0.0,M,,0000*46
$GPRMC,134027.000,A,6050.0008,N,00955.2447,E,000.00,0.0,040622,,,E*5C
$GPGGA,134028.000,6050.0008,N,00955.2448,E,1,00,,0.0,M,0.0,M,,0000*46
$GPRMC,134028.000,A,6050.0008,N,00955.2448,E,000.00,0.0,040622,,,E*5C
$GPGGA,134029.000,6050.0008,N,00955.2449,E,1,00,,0.0,M,0.0,M,,0000*46
$GPRMC,134029.000,A,6050.0008,N,00955.2449,E,000.00,0.0,040622,,,E*5C
$GPGGA,134030.000,6050.0008,N,00955.2449,E,1,00,,0.0,M,0.0,M,,0000*4E
$GPRMC,134030.000,A,6050.0008,N,00955.2449,E,000.00,0.0,040622,,,E*54
$GPGGA,134031.000,6050.0004,N,00955.2449,E,1,00,,0.0,M,0.0,M,,0000*43
$GPRMC,134031.000,A,6050.0004,N,00955.2449,E,000.00,0.0,040622,,,E*59
$GPGGA,134032.000,6050.0004,N,00955.2450,E,1,00,,0.0,M,0.0,M,,0000*48
$GPRMC,134032.000,A,6050.0004,N,00955.2450,E,000.00,0.0,040622,,,E*52
$GPGGA,134033.000,6050.0004,N,00955.2451,E,1,00,,0.0,M,0.0,M,,0000*48
$GPRMC,134033.000,A,6050.0004,N,00955.2451,E,000.00,0.0,040622,,,E*52
$GPGGA,134034.000,6050.0004,N,00955.2452,E,1,00,,0.0,M,0.0,M,,0000*4C
$GPRMC,134034.000,A,6050.0004,N,00955.2452,E,000.00,0.0,040622,,,E*56
$GPGGA,134035.000,6050.0004,N,00955.2452,E,1,00,,0.0,M,0.0,M,,0000*4D
$GPRMC,134035.000,A,6050.0004,N,00955.2452,E,000.00,0.0,040622,,,E*57
$GPGGA,134036.000,6050.0004,N,00955.2452,E,1,00,,0.0,M,0.0,M,,0000*4E
$GPRMC,134036.000,A,6050.0004,N,00955.2452,E,000.00,0.0,040622,,,E*54
$GPGGA,134037.000,6050.0004,N,00955.2453,E,1,00,,0.0,M,0.0,M,,0000*4E
$GPRMC,134037.000,A,6050.0004,N,00955.2453,E,000.00,0.0,040622,,,E*54
$GPGGA,134038.000,6050.0004,N,00955.2453,E,1,00,,0.0,M,0.0,M,,0000*41
$GPRMC,134038.000,A,6050.0004,N,00955.2453,E,000.00,0.0,040622,,,E*5B
$GPGGA,134039.000,6049.9999,N,00955.2454,E,1,00,,0.0,M,0.0,M,,0000*4B
$GPRMC,134039.000,A,6049.9999,N,00955.2454,E,000.00,0.0,040622,,,E*51
$GPGGA,134040.000,6049.9999,N,00955.2454,E,1,00,,0.0,M,0.0,M,,0000*45
$GPRMC,134040.000,A,6049.9999,N,00955.2454,E,000.00,0.0,040622,,,E*5F
$GPGGA,134041.000,6049.9999,N,00955.2454,E,1,00,,0.0,M,0.0,M,,0000*44
$GPRMC,134041.000,A,6049.9999,N,00955.2454,E,000.00,0.0,040622,,,E*5E
$GPGGA,134042.000,6049.9999,N,00955.2454,E,1,00,,0.0,M,0.0,M,,0000*47
$GPRMC,134042.000,A,6049.9999,N,00955.2454,E,000.00,0.0,040622,,,E*5D
$GPGGA,134043.000,6049.9999,N,00955.2455,E,1,00,,0.0,M,0.0,M,,0000*47
$GPRMC,134043.000,A,6049.9999,N,00955.2455,E,000.00,0.0,040622,,,E*5D
$GPGGA,134044.000,6049.9999,N,00955.2456,E,1,00,,0.0,M,0.0,M,,0000*43
$GPRMC,134044.000,A,6049.9999,N,00955.2456,E,000.00,0.0,040622,,,E*59
$GPGGA,134045.000,6049.9999,N,00955.2456,E,1,00,,0.0,M,0.0,M,,0000*42
$GPRMC,134045.000,A,6049.9999,N,00955.2456,E,000.00,0.0,040622,,,E*58
$GPGGA,134046.000,6049.9999,N,00955.2456,E,1,00,,0.0,M,0.0,M,,0000*41
$GPRMC,134046.000,A,6049.9999,N,00955.2456,E,000.00,0.0,040622,,,E*5B
$GPGGA,134047.000,6049.9999,N,00955.2456,E,1,00,,0.0,M,0.0,M,,0000*40
$GPRMC,134047.000,A,6049.9999,N,00955.2456,E,000.00,0.0,040622,,,E*5A
$GPGGA,134048.000,6049.9999,N,00955.2456,E,1,00,,0.0,M,0.0,M,,0000*4F
$GPRMC,134048.000,A,6049.9999,N,00955.2456,E,000.00,0.0,040622,,,E*55
$GPGGA,134049.000,6049.9999,N,00955.2456,E,1,00,,0.0,M,0.0,M,,0000*4E
$GPRMC,134049.000,A,6049.9999,N,00955.2456,E,000.00,0.0,040622,,,E*54
$GPGGA,134050.000,6049.9999,N,00955.2456,E,1,00,,0.0,M,0.0,M,,0000*46
$GPRMC,134050.000,A,6049.9999,N,00955.2456,E,000.00,0.0,040622,,,E*5C
$GPGGA,134051.000,6049.9999,N,00955.2456,E,1,00,,0.0,M,0.0,M,,0000*47
$GPRMC,134051.000,A,6049.9999,N,00955.2456,E,000.00,0.0,040622,,,E*5D
$GPGGA,134052.000,6049.9999,N,00955.2456,E,1,00,,0.0,M,0.0,M,,0000*44
$GPRMC,134052.000,A,6049.9999,N,00955.2456,E,000.00,0.0,040622,,,E*5E
$GPGGA,134053.000,6049.9999,N,00955.2455,E,1,00,,0.0,M,0.0,M,,0000*46
$GPRMC,134053.000,A,6049.9999,N,00955.2455,E,000.00,0.0,040622,,,E*5C
$GPGGA,134054.000,6049.9999,N,00955.2454,E,1,00,,0.0,M,0.0,M,,0000*40
$GPRMC,134054.000,A,6049.9999,N,00955.2454,E,000.00,0.0,040622,,,E*5A
$GPGGA,134055.000,6050.0004,N,00955.2454,E,1,00,,0.0,M,0.0,M,,0000*4D
$GPRMC,134055.000,A,6050.0004,N,00955.2454,E,000.00,0.0,040622,,,E*57
$GPGGA,134056.000,6050.0004,N,00955.2454,E,1,00,,0.0,M,0.0,M,,0000*4E
$GPRMC,134056.000,A,6050.0004,N,00955.2454,E,000.00,0.0,040622,,,E*54
$GPGGA,134057.000,6050.0004,N,00955.2454,E,1,00,,0.0,M,0.0,M,,0000*4F
$GPRMC,134057.000,A,6050.0004,N,00955.2454,E,000.00,0.0,040622,,,E*55
$GPGGA,134058.000,6050.0004,N,00955.2454,E,1,00,,0.0,M,0.0,M,,0000*40
$GPRMC,134058.000,A,6050.0004,N,00955.2454,E,000.00,0.0,040622,,,E*5A
$GPGGA,134059.000,6050.0004,N,00955.2454,E,1,00,,0.0,M,0.0,M,,0000*41
$GPRMC,134059.000,A,6050.0004,N,00955.2454,E,000.00,0.0,040622,,,E*5B
$GPGGA,134100.000,6050.0004,N,00955.2454,E,1,00,,0.0,M,0.0,M,,0000*4C
$GPRMC,134100.000,A,6050.0004,N,00955.2454,E,000.00,0.0,040622,,,E*56
$GPGGA,134101.000,6050.0004,N,00955.2453,E,1,00,,0.0,M,0.0,M,,0000*4A
$GPRMC,134101.000,A,6050.0004,N,00955.2453,E,000.00,0.0,040622,,,E*50
$GPGGA,134102.000,6050.0004,N,00955.2453,E,1,00,,0.0,M,0.0,M,,0000*49
$GPRMC,134102.000,A,6050.0004,N,00955.2453,E,000.00,0.0,040622,,,E*53
$GPGGA,134103.000,6050.0008,N,00955.2453,E,1,00,,0.0,M,0.0,M,,0000*44
$GPRMC,134103.000,A,6050.0008,N,00955.2453,E,000.00,0.0,040622,,,E*5E
$GPGGA,134104.000,6050.0008,N,00955.2452,E,1,00,,0.0,M,0.0,M,,0000*42
$GPRMC,134104.000,A,6050.0008,N,00955.2452,E,000.00,0.0,040622,,,E*58
$GPGGA,134105.000,6050.0008,N,00955.2452,E,1,00,,0.0,M,0.0,M,,0000*43
$GPRMC,134105.000,A,6050.0008,N,00955.2452,E,000.00,0.0,040622,,,E*59
$GPGGA,134106.000,6050.0008,N,00955.2452,E,1,00,,0.0,M,0.0,M,,0000*40
$GPRMC,134106.000,A,6050.0008,N,00955.2452,E,000.00,0.0,040622,,,E*5A
$GPGGA,134107.000,6050.0008,N,00955.2452,E,1,00,,0.0,M,0.0,M,,0000*41
$GPRMC,134107.000,A,6050.0008,N,00955.2452,E,000.00,0.0,040622,,,E*5B
$GPGGA,134108.000,6050.0008,N,00955.2452,E,1,00,,0.0,M,0.0,M,,0000*4E
$GPRMC,134108.000,A,6050.0008,N,00955.2452,E,000.00,0.0,040622,,,E*54
$GPGGA,134109.000,6050.0008,N,00955.2452,E,1,00,,0.0,M,0.0,M,,0000*4F
$GPRMC,134109.000,A,6050.0008,N,00955.2452,E,000.00,0.0,040622,,,E*55
$GPGGA,134110.000,6050.0008,N,00955.2451,E,1,00,,0.0,M,0.0,M,,0000*44
$GPRMC,134110.000,A,6050.0008,N,00955.2451,E,000.00,0.0,040622,,,E*5E
$GPGGA,134111.000,6050.0013,N,00955.2451,E,1,00,,0.0,M,0.0,M,,0000*4F
$GPRMC,134111.000,A,6050.0013,N,00955.2451,E,000.00,0.0,040622,,,E*55
$GPGGA,134112.000,6050.0013,N,00955.2451,E,1,00,,0.0,M,0.0,M,,0000*4C
$GPRMC,134112.000,A,6050.0013,N,00955.2451,E,000.00,0.0,040622,,,E*56
$GPGGA,134113.000,6050.0013,N,00955.2451,E,1,00,,0.0,M,0.0,M,,0000*4D
$GPRMC,134113.000,A,6050.0013,N,00955.2451,E,000.00,0.0,040622,,,E*57
$GPGGA,134114.000,6050.0013,N,00955.2451,E,1,00,,0.0,M,0.0,M,,0000*4A
$GPRMC,134114.000,A,6050.0013,N,00955.2451,E,000.00,0.0,040622,,,E*50
$GPGGA,134115.000,6050.0013,N,00955.2450,E,1,00,,0.0,M,0.0,M,,0000*4A
$GPRMC,134115.000,A,6050.0013,N,00955.2450,E,000.00,0.0,040622,,,E*50
$GPGGA,134116.000,6050.0013,N,00955.2450,E,1,00,,0.0,M,0.0,M,,0000*49
$GPRMC,134116.000,A,6050.0013,N,00955.2450,E,000.00,0.0,040622,,,E*53
$GPGGA,134117.000,6050.0013,N,00955.2450,E,1,00,,0.0,M,0.0,M,,0000*48
$GPRMC,134117.000,A,6050.0013,N,00955.2450,E,000.00,0.0,040622,,,E*52
$GPGGA,134118.000,6050.0013,N,00955.2450,E,1,00,,0.0,M,0.0,M,,0000*47
$GPRMC,134118.000,A,6050.0013,N,00955.2450,E,000.00,0.0,040622,,,E*5D
$GPGGA,134119.000,6050.0013,N,00955.2450,E,1,00,,0.0,M,0.0,M,,0000*46
$GPRMC,134119.000,A,6050.0013,N,00955.2450,E,000.00,0.0,040622,,,E*5C
$GPGGA,134120.000,6050.0013,N,00955.2450,E,1,00,,0.0,M,0.0,M,,0000*4C
$GPRMC,134120.000,A,6050.0013,N,00955.2450,E,000.00,0.0,040622,,,E*56
$GPGGA,134121.000,6050.0015,N,00955.2450,E,1,00,,0.0,M,0.0,M,,0000*4B
$GPRMC,134121.000,A,6050.0015,N,00955.2450,E,000.00,0.0,040622,,,E*51
$GPGGA,134122.000,6050.0015,N,00955.2450,E,1,00,,0.0,M,0.0,M,,0000*48
$GPRMC,134122.000,A,6050.0015,N,00955.2450,E,000.00,0.0,040622,,,E*52
$GPGGA,134123.000,6050.0015,N,00955.2449,E,1,00,,0.0,M,0.0,M,,0000*41
$GPRMC,134123.000,A,6050.0015,N,00955.2449,E,000.00,0.0,040622,,,E*5B
$GPGGA,134124.000,6050.0015,N,00955.2449,E,1,00,,0.0,M,0.0,M,,0000*46
$GPRMC,134124.000,A,6050.0015,N,00955.2449,E,000.00,0.0,040622,,,E*5C
$GPGGA,134125.000,6050.0015,N,00955.2449,E,1,00,,0.0,M,0.0,M,,0000*47
$GPRMC,134125.000,A,6050.0015,N,00955.2449,E,000.00,0.0,040622,,,E*5D
$GPGGA,134126.000,6050.0015,N,00955.2449,E,1,00,,0.0,M,0.0,M,,0000*44
$GPRMC,134126.000,A,6050.0015,N,00955.2449,E,000.00,0.0,040622,,,E*5E
$GPGGA,134127.000,6050.0015,N,00955.2449,E,1,00,,0.0,M,0.0,M,,0000*45
$GPRMC,134127.000,A,6050.0015,N,00955.2449,E,000.00,0.0,040622,,,E*5F
$GPGGA,134128.000,6050.0015,N,00955.2449,E,1,00,,0.0,M,0.0,M,,0000*4A
$GPRMC,134128.000,A,6050.0015,N,00955.2449,E,000.00,0.0,040622,,,E*50
$GPGGA,134129.000,6050.0015,N,00955.2449,E,1,00,,0.0,M,0.0,M,,0000*4B
$GPRMC,134129.000,A,6050.0015,N,00955.2449,E,000.00,0.0,040622,,,E*51
$GPGGA,134130.000,6050.0015,N,00955.2450,E,1,00,,0.0,M,0.0,M,,0000*4B
$GPRMC,134130.000,A,6050.0015,N,00955.2450,E,000.00,0.0,040622,,,E*51
$GPGGA,134131.000,6050.0015,N,00955.2450,E,1,00,,0.0,M,0.0,M,,0000*4A
$GPRMC,134131.000,A,6050.0015,N,00955.2450,E,000.00,0.0,040622,,,E*50
$GPGGA,134132.000,6050.0015,N,00955.2450,E,1,00,,0.0,M,0.0,M,,0000*49
$GPRMC,134132.000,A,6050.0015,N,00955.2450,E,000.00,0.0,040622,,,E*53
$GPGGA,134133.000,6050.0015,N,00955.2450,E,1,00,,0.0,M,0.0,M,,0000*48
$GPRMC,134133.000,A,6050.0015,N,00955.2450,E,000.00,0.0,040622,,,E*52
$GPGGA,134134.000,6050.0015,N,00955.2450,E,1,00,,0.0,M,0.0,M,,0000*4F
$GPRMC,134134.000,A,6050.0015,N,00955.2450,E,000.00,0.0,040622,,,E*55
$GPGGA,134135.000,6050.0015,N,00955.2451,E,1,00,,0.0,M,0.0,M,,0000*4F
$GPRMC,134135.000,A,6050.0015,N,00955.2451,E,000.00,0.0,040622,,,E*55
$GPGGA,134136.000,6050.0015,N,00955.2451,E,1,00,,0.0,M,0.0,M,,0000*4C
$GPRMC,134136.000,A,6050.0015,N,00955.2451,E,000.00,0.0,040622,,,E*56
$GPGGA,134137.000,6050.0015,N,00955.2452,E,1,00,,0.0,M,0.0,M,,0000*4E
$GPRMC,134137.000,A,6050.0015,N,00955.2452,E,000.00,0.0,040622,,,E*54
$GPGGA,134138.000,6050.0015,N,00955.2452,E,1,00,,0.0,M,0.0,M,,0000*41
$GPRMC,134138.000,A,6050.0015,N,00955.2452,E,000.00,0.0,040622,,,E*5B
$GPGGA,134139.000,6050.0015,N,00955.2452,E,1,00,,0.0,M,0.0,M,,0000*40
$GPRMC,134139.000,A,6050.0015,N,00955.2452,E,000.00,0.0,040622,,,E*5A
$GPGGA,134140.000,6050.0015,N,00955.2452,E,1,00,,0.0,M,0.0,M,,0000*4E
$GPRMC,134140.000,A,6050.0015,N,00955.2452,E,000.00,0.0,040622,,,E*54
$GPGGA,134141.000,6050.0020,N,00955.2452,E,1,00,,0.0,M,0.0,M,,0000*49
$GPRMC,134141.000,A,6050.0020,N,00955.2452,E,000.00,0.0,040622,,,E*53
$GPGGA,134142.000,6050.0020,N,00955.2451,E,1,00,,0.0,M,0.0,M,,0000*49
$GPRMC,134142.000,A,6050.0020,N,00955.2451,E,000.00,0.0,040622,,,E*53
$GPGGA,134143.000,6050.0020,N,00955.2451,E,1,00,,0.0,M,0.0,M,,0000*48
$GPRMC,134143.000,A,6050.0020,N,00955.2451,E,000.00,0.0,040622,,,E*52
$GPGGA,134144.000,6050.0020,N,00955.2450,E,1,00,,0.0,M,0.0,M,,0000*4E
$GPRMC,134144.000,A,6050.0020,N,00955.2450,E,000.00,0.0,040622,,,E*54
$GPGGA,134145.000,6050.0020,N,00955.2450,E,1,00,,0.0,M,0.0,M,,0000*4F
$GPRMC,134145.000,A,6050.0020,N,00955.2450,E,000.00,0.0,040622,,,E*55
$GPGGA,134146.000,6050.0024,N,00955.2450,E,1,00,,0.0,M,0.0,M,,0000*48
$GPRMC,134146.000,A,6050.0024,N,00955.2450,E,000.00,0.0,040622,,,E*52
$GPGGA,134147.000,6050.0024,N,00955.2450,E,1,00,,0.0,M,0.0,M,,0000*49
$GPRMC,134147.000,A,6050.0024,N,00955.2450,E,000.00,0.0,040622,,,E*53
$GPGGA,134148.000,6050.0024,N,00955.2449,E,1,00,,0.0,M,0.0,M,,0000*4E
$GPRMC,134148.000,A,6050.0024,N,00955.2449,E,000.00,0.0,040622,,,E*54
$GPGGA,134149.000,6050.0024,N,00955.2449,E,1,00,,0.0,M,0.0,M,,0000*4F
$GPRMC,134149.000,A,6050.0024,N,00955.2449,E,000.00,0.0,040622,,,E*55
$GPGGA,134150.000,6050.0024,N,00955.2449,E,1,00,,0.0,M,0.0,M,,0000*47
$GPRMC,134150.000,A,6050.0024,N,00955.2449,E,000.00,0.0,040622,,,E*5D
$GPGGA,134151.000,6050.0024,N,00955.2449,E,1,00,,0.0,M,0.0,M,,0000*46
$GPRMC,134151.000,A,6050.0024,N,00955.2449,E,000.00,0.0,040622,,,E*5C
$GPGGA,134152.000,6050.0024,N,00955.2448,E,1,00,,0.0,M,0.0,M,,0000*44
$GPRMC,134152.000,A,6050.0024,N,00955.2448,E,000.00,0.0,040622,,,E*5E
$GPGGA,134153.000,6050.0024,N,00955.2448,E,1,00,,0.0,M,0.0,M,,0000*45
$GPRMC,134153.000,A,6050.0024,N,00955.2448,E,000.00,0.0,040622,,,E*5F
$GPGGA,134154.000,6050.0029,N,00955.2448,E,1,00,,0.0,M,0.0,M,,0000*4F
$GPRMC,134154.000,A,6050.0029,N,00955.2448,E,000.00,0.0,040622,,,E*55
$GPGGA,134155.000,6050.0029,N,00955.2448,E,1,00,,0.0,M,0.0,M,,0000*4E
$GPRMC,134155.000,A,6050.0029,N,00955.2448,E,000.00,0.0,040622,,,E*54
$GPGGA,134156.000,6050.0029,N,00955.2448,E,1,00,,0.0,M,0.0,M,,0000*4D
$GPRMC,134156.000,A,6050.0029,N,00955.2448,E,000.00,0.0,040622,,,E*57
$GPGGA,134157.000,6050.0029,N,00955.2447,E,1,00,,0.0,M,0.0,M,,0000*43
$GPRMC,134157.000,A,6050.0029,N,00955.2447,E,000.00,0.0,040622,,,E*59
$GPGGA,134158.000,6050.0029,N,00955.2447,E,1,00,,0.0,M,0.0,M,,0000*4C
$GPRMC,134158.000,A,6050.0029,N,00955.2447,E,000.00,0.0,040622,,,E*56
$GPGGA,134159.000,6050.0029,N,00955.2446,E,1,00,,0.0,M,0.0,M,,0000*4C
$GPRMC,134159.000,A,6050.0029,N,00955.2446,E,000.00,0.0,040622,,,E*56
$GPGGA,134200.000,6050.0029,N,00955.2446,E,1,00,,0.0,M,0.0,M,,0000*43
$GPRMC,134200.000,A,6050.0029,N,00955.2446,E,000.00,0.0,040622,,,E*59
$GPGGA,134201.000,6050.0029,N,00955.2446,E,1,00,,0.0,M,0.0,M,,0000*42
$GPRMC,134201.000,A,6050.0029,N,00955.2446,E,000.00,0.0,040622,,,E*58
$GPGGA,134202.000,6050.0029,N,00955.2446,E,1,00,,0.0,M,0.0,M,,0000*41
$GPRMC,134202.000,A,6050.0029,N,00955.2446,E,000.00,0.0,040622,,,E*5B
$GPGGA,134203.000,6050.0029,N,00955.2446,E,1,00,,0.0,M,0.0,M,,0000*40
$GPRMC,134203.000,A,6050.0029,N,00955.2446,E,000.00,0.0,040622,,,E*5A
$GPGGA,134204.000,6050.0024,N,00955.2447,E,1,00,,0.0,M,0.0,M,,0000*4B
$GPRMC,134204.000,A,6050.0024,N,00955.2447,E,000.00,0.0,040622,,,E*51
$GPGGA,134205.000,6050.0024,N,00955.2448,E,1,00,,0.0,M,0.0,M,,0000*45
$GPRMC,134205.000,A,6050.0024,N,00955.2448,E,000.00,0.0,040622,,,E*5F
$GPGGA,134206.000,6050.0020,N,00955.2448,E,1,00,,0.0,M,0.0,M,,0000*42
$GPRMC,134206.000,A,6050.0020,N,00955.2448,E,000.00,0.0,040622,,,E*58
$GPGGA,134207.000,6050.0020,N,00955.2448,E,1,00,,0.0,M,0.0,M,,0000*43
$GPRMC,134207.000,A,6050.0020,N,00955.2448,E,000.00,0.0,040622,,,E*59
$GPGGA,134208.000,6050.0020,N,00955.2448,E,1,00,,0.0,M,0.0,M,,0000*4C
$GPRMC,134208.000,A,6050.0020,N,00955.2448,E,000.00,0.0,040622,,,E*56
$GPGGA,134209.000,6050.0015,N,00955.2449,E,1,00,,0.0,M,0.0,M,,0000*4A
$GPRMC,134209.000,A,6050.0015,N,00955.2449,E,000.00,0.0,040622,,,E*50
$GPGGA,134210.000,6050.0015,N,00955.2449,E,1,00,,0.0,M,0.0,M,,0000*42
$GPRMC,134210.000,A,6050.0015,N,00955.2449,E,000.00,0.0,040622,,,E*58
$GPGGA,134211.000,6050.0015,N,00955.2449,E,1,00,,0.0,M,0.0,M,,0000*43
$GPRMC,134211.000,A,6050.0015,N,00955.2449,E,000.00,0.0,040622,,,E*59
$GPGGA,134212.000,6050.0015,N,00955.2449,E,1,00,,0.0,M,0.0,M,,0000*40
$GPRMC,134212.000,A,6050.0015,N,00955.2449,E,000.00,0.0,040622,,,E*5A
$GPGGA,134213.000,6050.0013,N,00955.2449,E,1,00,,0.0,M,0.0,M,,0000*47
$GPRMC,134213.000,A,6050.0013,N,00955.2449,E,000.00,0.0,040622,,,E*5D
$GPGGA,134214.000,6050.0013,N,00955.2450,E,1,00,,0.0,M,0.0,M,,0000*48
$GPRMC,134214.000,A,6050.0013,N,00955.2450,E,000.00,0.0,040622,,,E*52
$GPGGA,134215.000,6050.0008,N,00955.2453,E,1,00,,0.0,M,0.0,M,,0000*40
$GPRMC,134215.000,A,6050.0008,N,00955.2453,E,000.00,0.0,040622,,,E*5A
$GPGGA,134216.000,6050.0004,N,00955.2454,E,1,00,,0.0,M,0.0,M,,0000*48
$GPRMC,134216.000,A,6050.0004,N,00955.2454,E,000.00,0.0,040622,,,E*52
$GPGGA,134217.000,6050.0004,N,00955.2456,E,1,00,,0.0,M,0.0,M,,0000*4B
$GPRMC,134217.000,A,6050.0004,N,00955.2456,E,000.00,0.0,040622,,,E*51
$GPGGA,134218.000,6049.9999,N,00955.2458,E,1,00,,0.0,M,0.0,M,,0000*46
$GPRMC,134218.000,A,6049.9999,N,00955.2458,E,000.00,0.0,040622,,,E*5C
$GPGGA,134219.000,6049.9997,N,00955.2459,E,1,00,,0.0,M,0.0,M,,0000*48
$GPRMC,134219.000,A,6049.9997,N,00955.2459,E,000.00,0.0,040622,,,E*52
$GPGGA,134220.000,6049.9997,N,00955.2460,E,1,00,,0.0,M,0.0,M,,0000*48
$GPRMC,134220.000,A,6049.9997,N,00955.2460,E,000.00,0.0,040622,,,E*52
$GPGGA,134221.000,6049.9997,N,00955.2461,E,1,00,,0.0,M,0.0,M,,0000*48
$GPRMC,134221.000,A,6049.9997,N,00955.2461,E,000.00,0.0,040622,,,E*52
$GPGGA,134222.000,6049.9992,N,00955.2462,E,1,00,,0.0,M,0.0,M,,0000*4D
$GPRMC,134222.000,A,6049.9992,N,00955.2462,E,000.00,0.0,040622,,,E*57
$GPGGA,134223.000,6049.9992,N,00955.2462,E,1,00,,0.0,M,0.0,M,,0000*4C
$GPRMC,134223.000,A,6049.9992,N,00955.2462,E,000.00,0.0,040622,,,E*56
$GPGGA,134224.000,6049.9992,N,00955.2464,E,1,00,,0.0,M,0.0,M,,0000*4D
$GPRMC,134224.000,A,6049.9992,N,00955.2464,E,000.00,0.0,040622,,,E*57
$GPGGA,134225.000,6049.9988,N,00955.2464,E,1,00,,0.0,M,0.0,M,,0000*47
$GPRMC,134225.000,A,6049.9988,N,00955.2464,E,000.00,0.0,040622,,,E*5D
$GPGGA,134226.000,6049.9988,N,00955.2464,E,1,00,,0.0,M,0.0,M,,0000*44
$GPRMC,134226.000,A,6049.9988,N,00955.2464,E,000.00,0.0,040622,,,E*5E
$GPGGA,134227.000,6049.9988,N,00955.2465,E,1,00,,0.0,M,0.0,M,,0000*44
$GPRMC,134227.000,A,6049.9988,N,00955.2465,E,000.00,0.0,040622,,,E*5E
$GPGGA,134228.000,6049.9988,N,00955.2465,E,1,00,,0.0,M,0.0,M,,0000*4B
$GPRMC,134228.000,A,6049.9988,N,00955.2465,E,000.00,0.0,040622,,,E*51
$GPGGA,134229.000,6049.9988,N,00955.2465,E,1,00,,0.0,M,0.0,M,,0000*4A
$GPRMC,134229.000,A,6049.9988,N,00955.2465,E,000.00,0.0,040622,,,E*50
$GPGGA,134230.000,6049.9988,N,00955.2466,E,1,00,,0.0,M,0.0,M,,0000*41
$GPRMC,134230.000,A,6049.9988,N,00955.2466,E,000.00,0.0,040622,,,E*5B
$GPGGA,134231.000,6049.9988,N,00955.2466,E,1,00,,0.0,M,0.0,M,,0000*40
$GPRMC,134231.000,A,6049.9988,N,00955.2466,E,000.00,0.0,040622,,,E*5A
$GPGGA,134232.000,6049.9983,N,00955.2466,E,1,00,,0.0,M,0.0,M,,0000*48
$GPRMC,134232.000,A,6049.9983,N,00955.2466,E,000.00,0.0,040622,,,E*52
$GPGGA,134233.000,6049.9983,N,00955.2467,E,1,00,,0.0,M,0.0,M,,0000*48
$GPRMC,134233.000,A,6049.9983,N,00955.2467,E,000.00,0.0,040622,,,E*52
$GPGGA,134234.000,6049.9983,N,00955.2467,E,1,00,,0.0,M,0.0,M,,0000*4F
$GPRMC,134234.000,A,6049.9983,N,00955.2467,E,000.00,0.0,040622,,,E*55
$GPGGA,134235.000,6049.9983,N,00955.2467,E,1,00,,0.0,M,0.0,M,,0000*4E
$GPRMC,134235.000,A,6049.9983,N,00955.2467,E,000.00,0.0,040622,,,E*54
$GPGGA,134236.000,6049.9983,N,00955.2468,E,1,00,,0.0,M,0.0,M,,0000*42
$GPRMC,134236.000,A,6049.9983,N,00955.2468,E,000.00,0.0,040622,,,E*58
$GPGGA,134237.000,6049.9983,N,00955.2468,E,1,00,,0.0,M,0.0,M,,0000*43
$GPRMC,134237.000,A,6049.9983,N,00955.2468,E,000.00,0.0,040622,,,E*59
$GPGGA,134238.000,6049.9983,N,00955.2468,E,1,00,,0.0,M,0.0,M,,0000*4C
$GPRMC,134238.000,A,6049.9983,N,00955.2468,E,000.00,0.0,040622,,,E*56
$GPGGA,134239.000,6049.9983,N,00955.2468,E,1,00,,0.0,M,0.0,M,,0000*4D
$GPRMC,134239.000,A,6049.9983,N,00955.2468,E,000.00,0.0,040622,,,E*57
$GPGGA,134240.000,6049.9983,N,00955.2468,E,1,00,,0.0,M,0.0,M,,0000*43
$GPRMC,134240.000,A,6049.9983,N,00955.2468,E,000.00,0.0,040622,,,E*59
$GPGGA,134241.000,6049.9983,N,00955.2468,E,1,00,,0.0,M,0.0,M,,0000*42
$GPRMC,134241.000,A,6049.9983,N,00955.2468,E,000.00,0.0,040622,,,E*58
$GPGGA,134242.000,6049.9983,N,00955.2468,E,1,00,,0.0,M,0.0,M,,0000*41
$GPRMC,134242.000,A,6049.9983,N,00955.2468,E,000.00,0.0,040622,,,E*5B
$GPGGA,134243.000,6049.9983,N,00955.2468,E,1,00,,0.0,M,0.0,M,,0000*40
$GPRMC,134243.000,A,6049.9983,N,00955.2468,E,000.00,0.0,040622,,,E*5A
$GPGGA,134244.000,6049.9983,N,00955.2469,E,1,00,,0.0,M,0.0,M,,0000*46
$GPRMC,134244.000,A,6049.9983,N,00955.2469,E,000.00,0.0,040622,,,E*5C
$GPGGA,134245.000,6049.9983,N,00955.2469,E,1,00,,0.0,M,0.0,M,,0000*47
$GPRMC,134245.000,A,6049.9983,N,00955.2469,E,000.00,0.0,040622,,,E*5D
$GPGGA,134246.000,6049.9983,N,00955.2469,E,1,00,,0.0,M,0.0,M,,0000*44
$GPRMC,134246.000,A,6049.9983,N,00955.2469,E,000.00,0.0,040622,,,E*5E
$GPGGA,134247.000,6049.9983,N,00955.2469,E,1,00,,0.0,M,0.0,M,,0000*45
$GPRMC,134247.000,A,6049.9983,N,00955.2469,E,000.00,0.0,040622,,,E*5F
$GPGGA,134248.000,6049.9983,N,00955.2469,E,1,00,,0.0,M,0.0,M,,0000*4A
$GPRMC,134248.000,A,6049.9983,N,00955.2469,E,000.00,0.0,040622,,,E*50
$GPGGA,134249.000,6049.9983,N,00955.2469,E,1,00,,0.0,M,0.0,M,,0000*4B
$GPRMC,134249.000,A,6049.9983,N,00955.2469,E,000.00,0.0,040622,,,E*51
$GPGGA,134250.000,6049.9983,N,00955.2469,E,1,00,,0.0,M,0.0,M,,0000*43
$GPRMC,134250.000,A,6049.9983,N,00955.2469,E,000.00,0.0,040622,,,E*59
$GPGGA,134251.000,6049.9983,N,00955.2469,E,1,00,,0.0,M,0.0,M,,0000*42
$GPRMC,134251.000,A,6049.9983,N,00955.2469,E,000.00,0.0,040622,,,E*58
$GPGGA,134252.000,6049.9983,N,00955.2469,E,1,00,,0.0,M,0.0,M,,0000*41
$GPRMC,134252.000,A,6049.9983,N,00955.2469,E,000.00,0.0,040622,,,E*5B
$GPGGA,134253.000,6049.9983,N,00955.2469,E,1,00,,0.0,M,0.0,M,,0000*40
$GPRMC,134253.000,A,6049.9983,N,00955.2469,E,000.00,0.0,040622,,,E*5A
$GPGGA,134254.000,6049.9983,N,00955.2469,E,1,00,,0.0,M,0.0,M,,0000*47
$GPRMC,134254.000,A,6049.9983,N,00955.2469,E,000.00,0.0,040622,,,E*5D
$GPGGA,134255.000,6049.9988,N,00955.2469,E,1,00,,0.0,M,0.0,M,,0000*4D
$GPRMC,134255.000,A,6049.9988,N,00955.2469,E,000.00,0.0,040622,,,E*57
$GPGGA,134256.000,6049.9988,N,00955.2469,E,1,00,,0.0,M,0.0,M,,0000*4E
$GPRMC,134256.000,A,6049.9988,N,00955.2469,E,000.00,0.0,040622,,,E*54
$GPGGA,134257.000,6049.9988,N,00955.2469,E,1,00,,0.0,M,0.0,M,,0000*4F
$GPRMC,134257.000,A,6049.9988,N,00955.2469,E,000.00,0.0,040622,,,E*55
$GPGGA,134258.000,6049.9988,N,00955.2469,E,1,00,,0.0,M,0.0,M,,0000*40
$GPRMC,134258.000,A,6049.9988,N,00955.2469,E,000.00,0.0,040622,,,E*5A
$GPGGA,134259.000,6049.9988,N,00955.2469,E,1,00,,0.0,M,0.0,M,,0000*41
$GPRMC,134259.000,A,6049.9988,N,00955.2469,E,000.00,0.0,040622,,,E*5B
$GPGGA,134300.000,6049.9988,N,00955.2469,E,1,00,,0.0,M,0.0,M,,0000*4C
$GPRMC,134300.000,A,6049.9988,N,00955.2469,E,000.00,0.0,040622,,,E*56
$GPGGA,134301.000,6049.9988,N,00955.2469,E,1,00,,0.0,M,0.0,M,,0000*4D
$GPRMC,134301.000,A,6049.9988,N,00955.2469,E,000.00,0.0,040622,,,E*57
$GPGGA,134302.000,6049.9988,N,00955.2469,E,1,00,,0.0,M,0.0,M,,0000*4E
$GPRMC,134302.000,A,6049.9988,N,00955.2469,E,000.00,0.0,040622,,,E*54
$GPGGA,134303.000,6049.9988,N,00955.2469,E,1,00,,0.0,M,0.0,M,,0000*4F
$GPRMC,134303.000,A,6049.9988,N,00955.2469,E,000.00,0.0,040622,,,E*55
$GPGGA,134304.000,6049.9988,N,00955.2469,E,1,00,,0.0,M,0.0,M,,0000*48
$GPRMC,134304.000,A,6049.9988,N,00955.2469,E,000.00,0.0,040622,,,E*52
$GPGGA,134305.000,6049.9988,N,00955.2469,E,1,00,,0.0,M,0.0,M,,0000*49
$GPRMC,134305.000,A,6049.9988,N,00955.2469,E,000.00,0.0,040622,,,E*53
$GPGGA,134306.000,6049.9988,N,00955.2469,E,1,00,,0.0,M,0.0,M,,0000*4A
$GPRMC,134306.000,A,6049.9988,N,00955.2469,E,000.00,0.0,040622,,,E*50
$GPGGA,134307.000,6049.9988,N,00955.2469,E,1,00,,0.0,M,0.0,M,,0000*4B
$GPRMC,134307.000,A,6049.9988,N,00955.2469,E,000.00,0.0,040622,,,E*51
$GPGGA,134308.000,6049.9988,N,00955.2469,E,1,00,,0.0,M,0.0,M,,0000*44
$GPRMC,134308.000,A,6049.9988,N,00955.2469,E,000.00,0.0,040622,,,E*5E
$GPGGA,134309.000,6049.9988,N,00955.2469,E,1,00,,0.0,M,0.0,M,,0000*45
$GPRMC,134309.000,A,6049.9988,N,00955.2469,E,000.00,0.0,040622,,,E*5F
$GPGGA,134310.000,6049.9988,N,00955.2469,E,1,00,,0.0,M,0.0,M,,0000*4D
$GPRMC,134310.000,A,6049.9988,N,00955.2469,E,000.00,0.0,040622,,,E*57
$GPGGA,134311.000,6049.9988,N,00955.2469,E,1,00,,0.0,M,0.0,M,,0000*4C
$GPRMC,134311.000,A,6049.9988,N,00955.2469,E,000.00,0.0,040622,,,E*56
$GPGGA,134312.000,6049.9988,N,00955.2469,E,1,00,,0.0,M,0.0,M,,0000*4F
$GPRMC,134312.000,A,6049.9988,N,00955.2469,E,000.00,0.0,040622,,,E*55
$GPGGA,134313.000,6049.9988,N,00955.2469,E,1,00,,0.0,M,0.0,M,,0000*4E
$GPRMC,134313.000,A,6049.9988,N,00955.2469,E,000.00,0.0,040622,,,E*54
$GPGGA,134314.000,6049.9988,N,00955.2469,E,1,00,,0.0,M,0.0,M,,0000*49
$GPRMC,134314.000,A,6049.9988,N,00955.2469,E,000.00,0.0,040622,,,E*53
$GPGGA,134315.000,6049.9988,N,00955.2469,E,1,00,,0.0,M,0.0,M,,0000*48
$GPRMC,134315.000,A,6049.9988,N,00955.2469,E,000.00,0.0,040622,,,E*52
$GPGGA,134316.000,6049.9988,N,00955.2469,E,1,00,,0.0,M,0.0,M,,0000*4B
$GPRMC,134316.000,A,6049.9988,N,00955.2469,E,000.00,0.0,040622,,,E*51
$GPGGA,134317.000,6049.9992,N,00955.2469,E,1,00,,0.0,M,0.0,M,,0000*41
$GPRMC,134317.000,A,6049.9992,N,00955.2469,E,000.00,0.0,040622,,,E*5B
$GPGGA,134318.000,6049.9992,N,00955.2469,E,1,00,,0.0,M,0.0,M,,0000*4E
$GPRMC,134318.000,A,6049.9992,N,00955.2469,E,000.00,0.0,040622,,,E*54
$GPGGA,134319.000,6049.9992,N,00955.2469,E,1,00,,0.0,M,0.0,M,,0000*4F
$GPRMC,134319.000,A,6049.9992,N,00955.2469,E,000.00,0.0,040622,,,E*55
$GPGGA,134320.000,6049.9992,N,00955.2469,E,1,00,,0.0,M,0.0,M,,0000*45
$GPRMC,134320.000,A,6049.9992,N,00955.2469,E,000.00,0.0,040622,,,E*5F
$GPGGA,134321.000,6049.9992,N,00955.2469,E,1,00,,0.0,M,0.0,M,,0000*44
$GPRMC,134321.000,A,6049.9992,N,00955.2469,E,000.00,0.0,040622,,,E*5E
$GPGGA,134322.000,6049.9992,N,00955.2469,E,1,00,,0.0,M,0.0,M,,0000*47
$GPRMC,134322.000,A,6049.9992,N,00955.2469,E,000.00,0.0,040622,,,E*5D
$GPGGA,134323.000,6049.9992,N,00955.2469,E,1,00,,0.0,M,0.0,M,,0000*46
$GPRMC,134323.000,A,6049.9992,N,00955.2469,E,000.00,0.0,040622,,,E*5C
$GPGGA,134324.000,6049.9992,N,00955.2469,E,1,00,,0.0,M,0.0,M,,0000*41
$GPRMC,134324.000,A,6049.9992,N,00955.2469,E,000.00,0.0,040622,,,E*5B
$GPGGA,134325.000,6049.9992,N,00955.2469,E,1,00,,0.0,M,0.0,M,,0000*40
$GPRMC,134325.000,A,6049.9992,N,00955.2469,E,000.00,0.0,040622,,,E*5A
$GPGGA,134326.000,6049.9992,N,00955.2469,E,1,00,,0.0,M,0.0,M,,0000*43
$GPRMC,134326.000,A,6049.9992,N,00955.2469,E,000.00,0.0,040622,,,E*59
$GPGGA,134327.000,6049.9992,N,00955.2469,E,1,00,,0.0,M,0.0,M,,0000*42
$GPRMC,134327.000,A,6049.9992,N,00955.2469,E,000.00,0.0,040622,,,E*58
$GPGGA,134328.000,6049.9992,N,00955.2469,E,1,00,,0.0,M,0.0,M,,0000*4D
$GPRMC,134328.000,A,6049.9992,N,00955.2469,E,000.00,0.0,040622,,,E*57
$GPGGA,134329.000,6049.9992,N,00955.2469,E,1,00,,0.0,M,0.0,M,,0000*4C
$GPRMC,134329.000,A,6049.9992,N,00955.2469,E,000.00,0.0,040622,,,E*56
$GPGGA,134330.000,6049.9992,N,00955.2468,E,1,00,,0.0,M,0.0,M,,0000*45
$GPRMC,134330.000,A,6049.9992,N,00955.2468,E,000.00,0.0,040622,,,E*5F
$GPGGA,134331.000,6049.9992,N,00955.2468,E,1,00,,0.0,M,0.0,M,,0000*44
$GPRMC,134331.000,A,6049.9992,N,00955.2468,E,000.00,0.0,040622,,,E*5E
$GPGGA,134332.000,6049.9992,N,00955.2468,E,1,00,,0.0,M,0.0,M,,0000*47
$GPRMC,134332.000,A,6049.9992,N,00955.2468,E,000.00,0.0,040622,,,E*5D
$GPGGA,134333.000,6049.9992,N,00955.2468,E,1,00,,0.0,M,0.0,M,,0000*46
$GPRMC,134333.000,A,6049.9992,N,00955.2468,E,000.00,0.0,040622,,,E*5C
$GPGGA,134334.000,6049.9992,N,00955.2468,E,1,00,,0.0,M,0.0,M,,0000*41
$GPRMC,134334.000,A,6049.9992,N,00955.2468,E,000.00,0.0,040622,,,E*5B
$GPGGA,134335.000,6049.9992,N,00955.2468,E,1,00,,0.0,M,0.0,M,,0000*40
$GPRMC,134335.000,A,6049.9992,N,00955.2468,E,000.00,0.0,040622,,,E*5A
$GPGGA,134336.000,6049.9997,N,00955.2467,E,1,00,,0.0,M,0.0,M,,0000*49
$GPRMC,134336.000,A,6049.9997,N,00955.2467,E,000.00,0.0,040622,,,E*53
$GPGGA,134337.000,6049.9997,N,00955.2466,E,1,00,,0.0,M,0.0,M,,0000*49
$GPRMC,134337.000,A,6049.9997,N,00955.2466,E,000.00,0.0,040622,,,E*53
$GPGGA,134338.000,6049.9997,N,00955.2466,E,1,00,,0.0,M,0.0,M,,0000*46
$GPRMC,134338.000,A,6049.9997,N,00955.2466,E,000.00,0.0,040622,,,E*5C
$GPGGA,134339.000,6049.9997,N,00955.2467,E,1,00,,0.0,M,0.0,M,,0000*46
$GPRMC,134339.000,A,6049.9997,N,00955.2467,E,000.00,0.0,040622,,,E*5C
$GPGGA,134340.000,6049.9997,N,00955.2466,E,1,00,,0.0,M,0.0,M,,0000*49
$GPRMC,134340.000,A,6049.9997,N,00955.2466,E,000.00,0.0,040622,,,E*53
$GPGGA,134341.000,6049.9997,N,00955.2466,E,1,00,,0.0,M,0.0,M,,0000*48
$GPRMC,134341.000,A,6049.9997,N,00955.2466,E,000.00,0.0,040622,,,E*52
$GPGGA,134342.000,6049.9997,N,00955.2466,E,1,00,,0.0,M,0.0,M,,0000*4B
$GPRMC,134342.000,A,6049.9997,N,00955.2466,E,000.00,0.0,040622,,,E*51
$GPGGA,134343.000,6049.9997,N,00955.2466,E,1,00,,0.0,M,0.0,M,,0000*4A
$GPRMC,134343.000,A,6049.9997,N,00955.2466,E,000.00,0.0,040622,,,E*50
$GPGGA,134344.000,6049.9997,N,00955.2466,E,1,00,,0.0,M,0.0,M,,0000*4D
$GPRMC,134344.000,A,6049.9997,N,00955.2466,E,000.00,0.0,040622,,,E*57
$GPGGA,134345.000,6049.9997,N,00955.2466,E,1,00,,0.0,M,0.0,M,,0000*4C
$GPRMC,134345.000,A,6049.9997,N,00955.2466,E,000.00,0.0,040622,,,E*56
$GPGGA,134346.000,6049.9997,N,00955.2466,E,1,00,,0.0,M,0.0,M,,0000*4F
$GPRMC,134346.000,A,6049.9997,N,00955.2466,E,000.00,0.0,040622,,,E*55
$GPGGA,134347.000,6049.9997,N,00955.2466,E,1,00,,0.0,M,0.0,M,,0000*4E
$GPRMC,134347.000,A,6049.9997,N,00955.2466,E,000.00,0.0,040622,,,E*54
$GPGGA,134348.000,6049.9997,N,00955.2466,E,1,00,,0.0,M,0.0,M,,0000*41
$GPRMC,134348.000,A,6049.9997,N,00955.2466,E,000.00,0.0,040622,,,E*5B
$GPGGA,134349.000,6049.9997,N,00955.2466,E,1,00,,0.0,M,0.0,M,,0000*40
$GPRMC,134349.000,A,6049.9997,N,00955.2466,E,000.00,0.0,040622,,,E*5A
$GPGGA,134350.000,6049.9997,N,00955.2466,E,1,00,,0.0,M,0.0,M,,0000*48
$GPRMC,134350.000,A,6049.9997,N,00955.2466,E,000.00,0.0,040622,,,E*52
$GPGGA,134351.000,6049.9997,N,00955.2466,E,1,00,,0.0,M,0.0,M,,0000*49
$GPRMC,134351.000,A,6049.9997,N,00955.2466,E,000.00,0.0,040622,,,E*53
$GPGGA,134352.000,6049.9997,N,00955.2466,E,1,00,,0.0,M,0.0,M,,0000*4A
$GPRMC,134352.000,A,6049.9997,N,00955.2466,E,000.00,0.0,040622,,,E*50
$GPGGA,134353.000,6049.9997,N,00955.2466,E,1,00,,0.0,M,0.0,M,,0000*4B
$GPRMC,134353.000,A,6049.9997,N,00955.2466,E,000.00,0.0,040622,,,E*51
$GPGGA,134354.000,6049.9997,N,00955.2466,E,1,00,,0.0,M,0.0,M,,0000*4C
$GPRMC,134354.000,A,6049.9997,N,00955.2466,E,000.00,0.0,040622,,,E*56
$GPGGA,134355.000,6049.9997,N,00955.2466,E,1,00,,0.0,M,0.0,M,,0000*4D
$GPRMC,134355.000,A,6049.9997,N,00955.2466,E,000.00,0.0,040622,,,E*57
$GPGGA,134356.000,6049.9997,N,00955.2466,E,1,00,,0.0,M,0.0,M,,0000*4E
$GPRMC,134356.000,A,6049.9997,N,00955.2466,E,000.00,0.0,040622,,,E*54
$GPGGA,134357.000,6049.9997,N,00955.2466,E,1,00,,0.0,M,0.0,M,,0000*4F
$GPRMC,134357.000,A,6049.9997,N,00955.2466,E,000.00,0.0,040622,,,E*55
$GPGGA,134358.000,6049.9997,N,00955.2466,E,1,00,,0.0,M,0.0,M,,0000*40
$GPRMC,134358.000,A,6049.9997,N,00955.2466,E,000.00,0.0,040622,,,E*5A
$GPGGA,134359.000,6049.9997,N,00955.2466,E,1,00,,0.0,M,0.0,M,,0000*41
$GPRMC,134359.000,A,6049.9997,N,00955.2466,E,000.00,0.0,040622,,,E*5B
$GPGGA,134400.000,6049.9997,N,00955.2466,E,1,00,,0.0,M,0.0,M,,0000*4A
$GPRMC,134400.000,A,6049.9997,N,00955.2466,E,000.00,0.0,040622,,,E*50
$GPGGA,134401.000,6049.9992,N,00955.2466,E,1,00,,0.0,M,0.0,M,,0000*4E
$GPRMC,134401.000,A,6049.9992,N,00955.2466,E,000.00,0.0,040622,,,E*54
$GPGGA,134402.000,6049.9992,N,00955.2466,E,1,00,,0.0,M,0.0,M,,0000*4D
$GPRMC,134402.000,A,6049.9992,N,00955.2466,E,000.00,0.0,040622,,,E*57
$GPGGA,134403.000,6049.9992,N,00955.2467,E,1,00,,0.0,M,0.0,M,,0000*4D
$GPRMC,134403.000,A,6049.9992,N,00955.2467,E,000.00,0.0,040622,,,E*57
$GPGGA,134404.000,6049.9992,N,00955.2467,E,1,00,,0.0,M,0.0,M,,0000*4A
$GPRMC,134404.000,A,6049.9992,N,00955.2467,E,000.00,0.0,040622,,,E*50
$GPGGA,134405.000,6049.9992,N,00955.2467,E,1,00,,0.0,M,0.0,M,,0000*4B
$GPRMC,134405.000,A,6049.9992,N,00955.2467,E,000.00,0.0,040622,,,E*51
$GPGGA,134406.000,6049.9992,N,00955.2468,E,1,00,,0.0,M,0.0,M,,0000*47
$GPRMC,134406.000,A,6049.9992,N,00955.2468,E,000.00,0.0,040622,,,E*5D
$GPGGA,134407.000,6049.9992,N,00955.2468,E,1,00,,0.0,M,0.0,M,,0000*46
$GPRMC,134407.000,A,6049.9992,N,00955.2468,E,000.00,0.0,040622,,,E*5C
$GPGGA,134408.000,6049.9992,N,00955.2468,E,1,00,,0.0,M,0.0,M,,0000*49
$GPRMC,134408.000,A,6049.9992,N,00955.2468,E,000.00,0.0,040622,,,E*53
$GPGGA,134409.000,6049.9992,N,00955.2468,E,1,00,,0.0,M,0.0,M,,0000*48
$GPRMC,134409.000,A,6049.9992,N,00955.2468,E,000.00,0.0,040622,,,E*52
$GPGGA,134410.000,6049.9992,N,00955.2468,E,1,00,,0.0,M,0.0,M,,0000*40
$GPRMC,134410.000,A,6049.9992,N,00955.2468,E,000.00,0.0,040622,,,E*5A
$GPGGA,134411.000,6049.9992,N,00955.2468,E,1,00,,0.0,M,0.0,M,,0000*41
$GPRMC,134411.000,A,6049.9992,N,00955.2468,E,000.00,0.0,040622,,,E*5B
$GPGGA,134412.000,6049.9992,N,00955.2468,E,1,00,,0.0,M,0.0,M,,0000*42
$GPRMC,134412.000,A,6049.9992,N,00955.2468,E,000.00,0.0,040622,,,E*58
$GPGGA,134413.000,6049.9992,N,00955.2468,E,1,00,,0.0,M,0.0,M,,0000*43
$GPRMC,134413.000,A,6049.9992,N,00955.2468,E,000.00,0.0,040622,,,E*59
$GPGGA,134414.000,6049.9992,N,00955.2468,E,1,00,,0.0,M,0.0,M,,0000*44
$GPRMC,134414.000,A,6049.9992,N,00955.2468,E,000.00,0.0,040622,,,E*5E
$GPGGA,134415.000,6049.9992,N,00955.2468,E,1,00,,0.0,M,0.0,M,,0000*45
$GPRMC,134415.000,A,6049.9992,N,00955.2468,E,000.00,0.0,040622,,,E*5F
$GPGGA,134416.000,6049.9992,N,00955.2468,E,1,00,,0.0,M,0.0,M,,0000*46
$GPRMC,134416.000,A,6049.9992,N,00955.2468,E,000.00,0.0,040622,,,E*5C
$GPGGA,134417.000,6049.9992,N,00955.2468,E,1,00,,0.0,M,0.0,M,,0000*47
$GPRMC,134417.000,A,6049.9992,N,00955.2468,E,000.00,0.0,040622,,,E*5D
$GPGGA,134418.000,6049.9992,N,00955.2468,E,1,00,,0.0,M,0.0,M,,0000*48
$GPRMC,134418.000,A,6049.9992,N,00955.2468,E,000.00,0.0,040622,,,E*52
$GPGGA,134419.000,6049.9992,N,00955.2468,E,1,00,,0.0,M,0.0,M,,0000*49
$GPRMC,134419.000,A,6049.9992,N,00955.2468,E,000.00,0.0,040622,,,E*53
$GPGGA,134420.000,6049.9992,N,00955.2468,E,1,00,,0.0,M,0.0,M,,0000*43
$GPRMC,134420.000,A,6049.9992,N,00955.2468,E,000.00,0.0,040622,,,E*59
$GPGGA,134421.000,6049.9992,N,00955.2468,E,1,00,,0.0,M,0.0,M,,0000*42
$GPRMC,134421.000,A,6049.9992,N,00955.2468,E,000.00,0.0,040622,,,E*58
$GPGGA,134422.000,6049.9992,N,00955.2468,E,1,00,,0.0,M,0.0,M,,0000*41
$GPRMC,134422.000,A,6049.9992,N,00955.2468,E,000.00,0.0,040622,,,E*5B
$GPGGA,134423.000,6049.9992,N,00955.2468,E,1,00,,0.0,M,0.0,M,,0000*40
$GPRMC,134423.000,A,6049.9992,N,00955.2468,E,000.00,0.0,040622,,,E*5A
$GPGGA,134424.000,6049.9992,N,00955.2468,E,1,00,,0.0,M,0.0,M,,0000*47
$GPRMC,134424.000,A,6049.9992,N,00955.2468,E,000.00,0.0,040622,,,E*5D
$GPGGA,134425.000,6049.9992,N,00955.2468,E,1,00,,0.0,M,0.0,M,,0000*46
$GPRMC,134425.000,A,6049.9992,N,00955.2468,E,000.00,0.0,040622,,,E*5C
$GPGGA,134426.000,6049.9992,N,00955.2468,E,1,00,,0.0,M,0.0,M,,0000*45
$GPRMC,134426.000,A,6049.9992,N,00955.2468,E,000.00,0.0,040622,,,E*5F
$GPGGA,134427.000,6049.9992,N,00955.2468,E,1,00,,0.0,M,0.0,M,,0000*44
$GPRMC,134427.000,A,6049.9992,N,00955.2468,E,000.00,0.0,040622,,,E*5E
$GPGGA,134428.000,6049.9992,N,00955.2468,E,1,00,,0.0,M,0.0,M,,0000*4B
$GPRMC,134428.000,A,6049.9992,N,00955.2468,E,000.00,0.0,040622,,,E*51
$GPGGA,134429.000,6049.9992,N,00955.2468,E,1,00,,0.0,M,0.0,M,,0000*4A
$GPRMC,134429.000,A,6049.9992,N,00955.2468,E,000.00,0.0,040622,,,E*50
$GPGGA,134430.000,6049.9992,N,00955.2467,E,1,00,,0.0,M,0.0,M,,0000*4D
$GPRMC,134430.000,A,6049.9992,N,00955.2467,E,000.00,0.0,040622,,,E*57
$GPGGA,134431.000,6049.9992,N,00955.2467,E,1,00,,0.0,M,0.0,M,,0000*4C
$GPRMC,134431.000,A,6049.9992,N,00955.2467,E,000.00,0.0,040622,,,E*56
$GPGGA,134432.000,6049.9992,N,00955.2467,E,1,00,,0.0,M,0.0,M,,0000*4F
$GPRMC,134432.000,A,6049.9992,N,00955.2467,E,000.00,0.0,040622,,,E*55
$GPGGA,134433.000,6049.9992,N,00955.2466,E,1,00,,0.0,M,0.0,M,,0000*4F
$GPRMC,134433.000,A,6049.9992,N,00955.2466,E,000.00,0.0,040622,,,E*55
$GPGGA,134434.000,6049.9997,N,00955.2466,E,1,00,,0.0,M,0.0,M,,0000*4D
$GPRMC,134434.000,A,6049.9997,N,00955.2466,E,000.00,0.0,040622,,,E*57
$GPGGA,134435.000,6049.9997,N,00955.2465,E,1,00,,0.0,M,0.0,M,,0000*4F
$GPRMC,134435.000,A,6049.9997,N,00955.2465,E,000.00,0.0,040622,,,E*55
$GPGGA,134436.000,6049.9999,N,00955.2464,E,1,00,,0.0,M,0.0,M,,0000*43
$GPRMC,134436.000,A,6049.9999,N,00955.2464,E,000.00,0.0,040622,,,E*59
$GPGGA,134437.000,6049.9999,N,00955.2463,E,1,00,,0.0,M,0.0,M,,0000*45
$GPRMC,134437.000,A,6049.9999,N,00955.2463,E,000.00,0.0,040622,,,E*5F
$GPGGA,134438.000,6050.0004,N,00955.2461,E,1,00,,0.0,M,0.0,M,,0000*44
