$GPGGA,145300.000,5958.1310,N,01103.0117,E,1,00,,109.0,M,0.0,M,,0000*4F
$GPRMC,145300.000,A,5958.1310,N,01103.0117,E,000.00,0.0,140622,,,E*5C
$GPGGA,145301.000,5958.1305,N,01103.0115,E,1,00,,109.4,M,0.0,M,,0000*4C
$GPRMC,145301.000,A,5958.1305,N,01103.0115,E,000.00,0.0,140622,,,E*5B
$GPGGA,145302.000,5958.1305,N,01103.0116,E,1,00,,109.2,M,0.0,M,,0000*4A
$GPRMC,145302.000,A,5958.1305,N,01103.0116,E,000.00,0.0,140622,,,E*5B
$GPGGA,145303.000,5958.1305,N,01103.0117,E,1,00,,109.0,M,0.0,M,,0000*48
$GPRMC,145303.000,A,5958.1305,N,01103.0117,E,000.00,0.0,140622,,,E*5B
$GPGGA,145304.000,5958.1305,N,01103.0119,E,1,00,,109.2,M,0.0,M,,0000*43
$GPRMC,145304.000,A,5958.1305,N,01103.0119,E,000.00,0.0,140622,,,E*52
$GPGGA,145305.000,5958.1305,N,01103.0119,E,1,00,,108.9,M,0.0,M,,0000*48
$GPRMC,145305.000,A,5958.1305,N,01103.0119,E,000.00,0.0,140622,,,E*53
$GPGGA,145306.000,5958.1305,N,01103.0119,E,1,00,,108.6,M,0.0,M,,0000*44
$GPRMC,145306.000,A,5958.1305,N,01103.0119,E,000.00,0.0,140622,,,E*50
$GPGGA,145307.000,5958.1305,N,01103.0119,E,1,00,,108.4,M,0.0,M,,0000*47
$GPRMC,145307.000,A,5958.1305,N,01103.0119,E,000.00,0.0,140622,,,E*51
$GPGGA,145308.000,5958.1305,N,01103.0120,E,1,00,,108.3,M,0.0,M,,0000*45
$GPRMC,145308.000,A,5958.1305,N,01103.0120,E,000.00,0.0,140622,,,E*54
$GPGGA,145309.000,5958.1305,N,01103.0120,E,1,00,,108.1,M,0.0,M,,0000*46
$GPRMC,145309.000,A,5958.1305,N,01103.0120,E,000.00,0.0,140622,,,E*55
$GPGGA,145310.000,5958.1305,N,01103.0120,E,1,00,,108.0,M,0.0,M,,0000*4F
$GPRMC,145310.000,A,5958.1305,N,01103.0120,E,000.00,0.0,140622,,,E*5D
$GPGGA,145311.000,5958.1305,N,01103.0120,E,1,00,,107.9,M,0.0,M,,0000*48
$GPRMC,145311.000,A,5958.1305,N,01103.0120,E,000.00,0.0,140622,,,E*5C
$GPGGA,145312.000,5958.1305,N,01103.0120,E,1,00,,107.8,M,0.0,M,,0000*4A
$GPRMC,145312.000,A,5958.1305,N,01103.0120,E,000.00,0.0,140622,,,E*5F
$GPGGA,145313.000,5958.1305,N,01103.0120,E,1,00,,107.7,M,0.0,M,,0000*44
$GPRMC,145313.000,A,5958.1305,N,01103.0120,E,000.00,0.0,140622,,,E*5E
$GPGGA,145314.000,5958.1305,N,01103.0120,E,1,00,,107.6,M,0.0,M,,0000*42
$GPRMC,145314.000,A,5958.1305,N,01103.0120,E,000.00,0.0,140622,,,E*59
$GPGGA,145315.000,5958.1305,N,01103.0120,E,1,00,,107.6,M,0.0,M,,0000*43
$GPRMC,145315.000,A,5958.1305,N,01103.0120,E,000.00,0.0,140622,,,E*58
$GPGGA,145316.000,5958.1305,N,01103.0120,E,1,00,,107.5,M,0.0,M,,0000*43
$GPRMC,145316.000,A,5958.1305,N,01103.0120,E,000.00,0.0,140622,,,E*5B
$GPGGA,145317.000,5958.1305,N,01103.0120,E,1,00,,107.5,M,0.0,M,,0000*42
$GPRMC,145317.000,A,5958.1305,N,01103.0120,E,000.00,0.0,140622,,,E*5A
$GPGGA,145318.000,5958.1303,N,01103.0119,E,1,00,,107.0,M,0.0,M,,0000*44
$GPRMC,145318.000,A,5958.1303,N,01103.0119,E,000.00,0.0,140622,,,E*59
$GPGGA,145319.000,5958.1303,N,01103.0117,E,1,00,,106.7,M,0.0,M,,0000*4D
$GPRMC,145319.000,A,5958.1303,N,01103.0117,E,000.00,0.0,140622,,,E*56
$GPGGA,145320.000,5958.1303,N,01103.0117,E,1,00,,106.4,M,0.0,M,,0000*44
$GPRMC,145320.000,A,5958.1303,N,01103.0117,E,000.00,0.0,140622,,,E*5C
$GPGGA,145321.000,5958.1303,N,01103.0116,E,1,00,,106.1,M,0.0,M,,0000*41
$GPRMC,145321.000,A,5958.1303,N,01103.0116,E,000.00,0.0,140622,,,E*5C
$GPGGA,145322.000,5958.1303,N,01103.0115,E,1,00,,105.9,M,0.0,M,,0000*4A
$GPRMC,145322.000,A,5958.1303,N,01103.0115,E,000.00,0.0,140622,,,E*5C
$GPGGA,145323.000,5958.1303,N,01103.0114,E,1,00,,105.8,M,0.0,M,,0000*4B
$GPRMC,145323.000,A,5958.1303,N,01103.0114,E,000.00,0.0,140622,,,E*5C
$GPGGA,145324.000,5958.1303,N,01103.0113,E,1,00,,105.6,M,0.0,M,,0000*45
$GPRMC,145324.000,A,5958.1303,N,01103.0113,E,000.00,0.0,140622,,,E*5C
$GPGGA,145325.000,5958.1303,N,01103.0113,E,1,00,,105.6,M,0.0,M,,0000*44
$GPRMC,145325.000,A,5958.1303,N,01103.0113,E,000.00,0.0,140622,,,E*5D
$GPGGA,145326.000,5958.1303,N,01103.0113,E,1,00,,105.4,M,0.0,M,,0000*45
$GPRMC,145326.000,A,5958.1303,N,01103.0113,E,000.00,0.0,140622,,,E*5E
$GPGGA,145327.000,5958.1298,N,01103.0113,E,1,00,,105.4,M,0.0,M,,0000*47
$GPRMC,145327.000,A,5958.1298,N,01103.0113,E,000.00,0.0,140622,,,E*5C
$GPGGA,145328.000,5958.1298,N,01103.0112,E,1,00,,105.3,M,0.0,M,,0000*4E
$GPRMC,145328.000,A,5958.1298,N,01103.0112,E,000.00,0.0,140622,,,E*52
$GPGGA,145329.000,5958.1298,N,01103.0112,E,1,00,,105.3,M,0.0,M,,0000*4F
$GPRMC,145329.000,A,5958.1298,N,01103.0112,E,000.00,0.0,140622,,,E*53
$GPGGA,145330.000,5958.1298,N,01103.0112,E,1,00,,105.2,M,0.0,M,,0000*46
$GPRMC,145330.000,A,5958.1298,N,01103.0112,E,000.00,0.0,140622,,,E*5B
$GPGGA,145331.000,5958.1298,N,01103.0112,E,1,00,,105.2,M,0.0,M,,0000*47
$GPRMC,145331.000,A,5958.1298,N,01103.0112,E,000.00,0.0,140622,,,E*5A
$GPGGA,145332.000,5958.1298,N,01103.0112,E,1,00,,105.2,M,0.0,M,,0000*44
$GPRMC,145332.000,A,5958.1298,N,01103.0112,E,000.00,0.0,140622,,,E*59
$GPGGA,145333.000,5958.1298,N,01103.0112,E,1,00,,105.2,M,0.0,M,,0000*45
$GPRMC,145333.000,A,5958.1298,N,01103.0112,E,000.00,0.0,140622,,,E*58
$GPGGA,145334.000,5958.1298,N,01103.0112,E,1,00,,105.1,M,0.0,M,,0000*41
$GPRMC,145334.000,A,5958.1298,N,01103.0112,E,000.00,0.0,140622,,,E*5F
$GPGGA,145335.000,5958.1298,N,01103.0112,E,1,00,,105.1,M,0.0,M,,0000*40
$GPRMC,145335.000,A,5958.1298,N,01103.0112,E,000.00,0.0,140622,,,E*5E
$GPGGA,145336.000,5958.1298,N,01103.0111,E,1,00,,105.1,M,0.0,M,,0000*40
$GPRMC,145336.000,A,5958.1298,N,01103.0111,E,000.00,0.0,140622,,,E*5E
$GPGGA,145337.000,5958.1298,N,01103.0111,E,1,00,,105.1,M,0.0,M,,0000*41
$GPRMC,145337.000,A,5958.1298,N,01103.0111,E,000.00,0.0,140622,,,E*5F
$GPGGA,145338.000,5958.1298,N,01103.0111,E,1,00,,105.0,M,0.0,M,,0000*4F
$GPRMC,145338.000,A,5958.1298,N,01103.0111,E,000.00,0.0,140622,,,E*50
$GPGGA,145339.000,5958.1298,N,01103.0111,E,1,00,,105.0,M,0.0,M,,0000*4E
$GPRMC,145339.000,A,5958.1298,N,01103.0111,E,000.00,0.0,140622,,,E*51
$GPGGA,145340.000,5958.1298,N,01103.0111,E,1,00,,105.0,M,0.0,M,,0000*40
$GPRMC,145340.000,A,5958.1298,N,01103.0111,E,000.00,0.0,140622,,,E*5F
$GPGGA,145341.000,5958.1298,N,01103.0111,E,1,00,,105.0,M,0.0,M,,0000*41
$GPRMC,145341.000,A,5958.1298,N,01103.0111,E,000.00,0.0,140622,,,E*5E
$GPGGA,145342.000,5958.1298,N,01103.0111,E,1,00,,104.9,M,0.0,M,,0000*4A
$GPRMC,145342.000,A,5958.1298,N,01103.0111,E,000.00,0.0,140622,,,E*5D
$GPGGA,145343.000,5958.1298,N,01103.0111,E,1,00,,104.9,M,0.0,M,,0000*4B
$GPRMC,145343.000,A,5958.1298,N,01103.0111,E,000.00,0.0,140622,,,E*5C
$GPGGA,145344.000,5958.1298,N,01103.0111,E,1,00,,104.9,M,0.0,M,,0000*4C
$GPRMC,145344.000,A,5958.1298,N,01103.0111,E,000.00,0.0,140622,,,E*5B
$GPGGA,145345.000,5958.1298,N,01103.0111,E,1,00,,104.8,M,0.0,M,,0000*4C
$GPRMC,145345.000,A,5958.1298,N,01103.0111,E,000.00,0.0,140622,,,E*5A
$GPGGA,145346.000,5958.1298,N,01103.0111,E,1,00,,104.8,M,0.0,M,,0000*4F
$GPRMC,145346.000,A,5958.1298,N,01103.0111,E,000.00,0.0,140622,,,E*59
$GPGGA,145347.000,5958.1298,N,01103.0111,E,1,00,,104.8,M,0.0,M,,0000*4E
$GPRMC,145347.000,A,5958.1298,N,01103.0111,E,000.00,0.0,140622,,,E*58
$GPGGA,145348.000,5958.1298,N,01103.0111,E,1,00,,104.7,M,0.0,M,,0000*4E
$GPRMC,145348.000,A,5958.1298,N,01103.0111,E,000.00,0.0,140622,,,E*57
$GPGGA,145349.000,5958.1298,N,01103.0111,E,1,00,,104.7,M,0.0,M,,0000*4F
$GPRMC,145349.000,A,5958.1298,N,01103.0111,E,000.00,0.0,140622,,,E*56
$GPGGA,145350.000,5958.1298,N,01103.0111,E,1,00,,104.7,M,0.0,M,,0000*47
$GPRMC,145350.000,A,5958.1298,N,01103.0111,E,000.00,0.0,140622,,,E*5E
$GPGGA,145351.000,5958.1298,N,01103.0110,E,1,00,,104.7,M,0.0,M,,0000*47
$GPRMC,145351.000,A,5958.1298,N,01103.0110,E,000.00,0.0,140622,,,E*5E
$GPGGA,145352.000,5958.1298,N,01103.0110,E,1,00,,104.6,M,0.0,M,,0000*45
$GPRMC,145352.000,A,5958.1298,N,01103.0110,E,000.00,0.0,140622,,,E*5D
$GPGGA,145353.000,5958.1298,N,01103.0110,E,1,00,,104.6,M,0.0,M,,0000*44
$GPRMC,145353.000,A,5958.1298,N,01103.0110,E,000.00,0.0,140622,,,E*5C
$GPGGA,145354.000,5958.1298,N,01103.0110,E,1,00,,104.6,M,0.0,M,,0000*43
$GPRMC,145354.000,A,5958.1298,N,01103.0110,E,000.00,0.0,140622,,,E*5B
$GPGGA,145355.000,5958.1293,N,01103.0110,E,1,00,,104.6,M,0.0,M,,0000*49
$GPRMC,145355.000,A,5958.1293,N,01103.0110,E,000.00,0.0,140622,,,E*51
$GPGGA,145356.000,5958.1293,N,01103.0110,E,1,00,,104.6,M,0.0,M,,0000*4A
$GPRMC,145356.000,A,5958.1293,N,01103.0110,E,000.00,0.0,140622,,,E*52
$GPGGA,145357.000,5958.1293,N,01103.0110,E,1,00,,104.5,M,0.0,M,,0000*48
$GPRMC,145357.000,A,5958.1293,N,01103.0110,E,000.00,0.0,140622,,,E*53
$GPGGA,145358.000,5958.1293,N,01103.0110,E,1,00,,104.5,M,0.0,M,,0000*47
$GPRMC,145358.000,A,5958.1293,N,01103.0110,E,000.00,0.0,140622,,,E*5C
$GPGGA,145359.000,5958.1293,N,01103.0110,E,1,00,,104.5,M,0.0,M,,0000*46
$GPRMC,145359.000,A,5958.1293,N,01103.0110,E,000.00,0.0,140622,,,E*5D
$GPGGA,145400.000,5958.1293,N,01103.0110,E,1,00,,104.5,M,0.0,M,,0000*4D
$GPRMC,145400.000,A,5958.1293,N,01103.0110,E,000.00,0.0,140622,,,E*56
$GPGGA,145401.000,5958.1293,N,01103.0109,E,1,00,,104.5,M,0.0,M,,0000*44
$GPRMC,145401.000,A,5958.1293,N,01103.0109,E,000.00,0.0,140622,,,E*5F
$GPGGA,145402.000,5958.1293,N,01103.0109,E,1,00,,104.5,M,0.0,M,,0000*47
$GPRMC,145402.000,A,5958.1293,N,01103.0109,E,000.00,0.0,140622,,,E*5C
$GPGGA,145403.000,5958.1293,N,01103.0109,E,1,00,,104.5,M,0.0,M,,0000*46
$GPRMC,145403.000,A,5958.1293,N,01103.0109,E,000.00,0.0,140622,,,E*5D
$GPGGA,145404.000,5958.1293,N,01103.0109,E,1,00,,104.5,M,0.0,M,,0000*41
$GPRMC,145404.000,A,5958.1293,N,01103.0109,E,000.00,0.0,140622,,,E*5A
$GPGGA,145405.000,5958.1293,N,01103.0109,E,1,00,,104.5,M,0.0,M,,0000*40
$GPRMC,145405.000,A,5958.1293,N,01103.0109,E,000.00,0.0,140622,,,E*5B
$GPGGA,145406.000,5958.1293,N,01103.0109,E,1,00,,104.5,M,0.0,M,,0000*43
$GPRMC,145406.000,A,5958.1293,N,01103.0109,E,000.00,0.0,140622,,,E*58
$GPGGA,145407.000,5958.1293,N,01103.0109,E,1,00,,104.4,M,0.0,M,,0000*43
$GPRMC,145407.000,A,5958.1293,N,01103.0109,E,000.00,0.0,140622,,,E*59
$GPGGA,145408.000,5958.1293,N,01103.0109,E,1,00,,104.4,M,0.0,M,,0000*4C
$GPRMC,145408.000,A,5958.1293,N,01103.0109,E,000.00,0.0,140622,,,E*56
$GPGGA,145409.000,5958.1293,N,01103.0109,E,1,00,,104.4,M,0.0,M,,0000*4D
$GPRMC,145409.000,A,5958.1293,N,01103.0109,E,000.00,0.0,140622,,,E*57
$GPGGA,145410.000,5958.1293,N,01103.0109,E,1,00,,104.4,M,0.0,M,,0000*45
$GPRMC,145410.000,A,5958.1293,N,01103.0109,E,000.00,0.0,140622,,,E*5F
$GPGGA,145411.000,5958.1293,N,01103.0109,E,1,00,,104.4,M,0.0,M,,0000*44
$GPRMC,145411.000,A,5958.1293,N,01103.0109,E,000.00,0.0,140622,,,E*5E
$GPGGA,145412.000,5958.1293,N,01103.0109,E,1,00,,104.4,M,0.0,M,,0000*47
$GPRMC,145412.000,A,5958.1293,N,01103.0109,E,000.00,0.0,140622,,,E*5D
$GPGGA,145413.000,5958.1293,N,01103.0109,E,1,00,,104.4,M,0.0,M,,0000*46
$GPRMC,145413.000,A,5958.1293,N,01103.0109,E,000.00,0.0,140622,,,E*5C
$GPGGA,145414.000,5958.1293,N,01103.0109,E,1,00,,104.3,M,0.0,M,,0000*46
$GPRMC,145414.000,A,5958.1293,N,01103.0109,E,000.00,0.0,140622,,,E*5B
$GPGGA,145415.000,5958.1293,N,01103.0109,E,1,00,,104.3,M,0.0,M,,0000*47
$GPRMC,145415.000,A,5958.1293,N,01103.0109,E,000.00,0.0,140622,,,E*5A
$GPGGA,145416.000,5958.1293,N,01103.0109,E,1,00,,104.3,M,0.0,M,,0000*44
$GPRMC,145416.000,A,5958.1293,N,01103.0109,E,000.00,0.0,140622,,,E*59
$GPGGA,145417.000,5958.1293,N,01103.0109,E,1,00,,104.3,M,0.0,M,,0000*45
$GPRMC,145417.000,A,5958.1293,N,01103.0109,E,000.00,0.0,140622,,,E*58
$GPGGA,145418.000,5958.1293,N,01103.0109,E,1,00,,104.2,M,0.0,M,,0000*4B
$GPRMC,145418.000,A,5958.1293,N,01103.0109,E,000.00,0.0,140622,,,E*57
$GPGGA,145419.000,5958.1293,N,01103.0109,E,1,00,,104.2,M,0.0,M,,0000*4A
$GPRMC,145419.000,A,5958.1293,N,01103.0109,E,000.00,0.0,140622,,,E*56
$GPGGA,145420.000,5958.1293,N,01103.0109,E,1,00,,104.2,M,0.0,M,,0000*40
$GPRMC,145420.000,A,5958.1293,N,01103.0109,E,000.00,0.0,140622,,,E*5C
$GPGGA,145421.000,5958.1293,N,01103.0109,E,1,00,,104.2,M,0.0,M,,0000*41
$GPRMC,145421.000,A,5958.1293,N,01103.0109,E,000.00,0.0,140622,,,E*5D
$GPGGA,145422.000,5958.1293,N,01103.0109,E,1,00,,104.2,M,0.0,M,,0000*42
$GPRMC,145422.000,A,5958.1293,N,01103.0109,E,000.00,0.0,140622,,,E*5E
$GPGGA,145423.000,5958.1293,N,01103.0109,E,1,00,,104.2,M,0.0,M,,0000*43
$GPRMC,145423.000,A,5958.1293,N,01103.0109,E,000.00,0.0,140622,,,E*5F
$GPGGA,145424.000,5958.1293,N,01103.0109,E,1,00,,104.2,M,0.0,M,,0000*44
$GPRMC,145424.000,A,5958.1293,N,01103.0109,E,000.00,0.0,140622,,,E*58
$GPGGA,145425.000,5958.1293,N,01103.0109,E,1,00,,104.1,M,0.0,M,,0000*46
$GPRMC,145425.000,A,5958.1293,N,01103.0109,E,000.00,0.0,140622,,,E*59
$GPGGA,145426.000,5958.1293,N,01103.0109,E,1,00,,104.1,M,0.0,M,,0000*45
$GPRMC,145426.000,A,5958.1293,N,01103.0109,E,000.00,0.0,140622,,,E*5A
$GPGGA,145427.000,5958.1293,N,01103.0109,E,1,00,,104.1,M,0.0,M,,0000*44
$GPRMC,145427.000,A,5958.1293,N,01103.0109,E,000.00,0.0,140622,,,E*5B
$GPGGA,145428.000,5958.1293,N,01103.0109,E,1,00,,104.1,M,0.0,M,,0000*4B
$GPRMC,145428.000,A,5958.1293,N,01103.0109,E,000.00,0.0,140622,,,E*54
$GPGGA,145429.000,5958.1293,N,01103.0109,E,1,00,,104.1,M,0.0,M,,0000*4A
$GPRMC,145429.000,A,5958.1293,N,01103.0109,E,000.00,0.0,140622,,,E*55
$GPGGA,145430.000,5958.1293,N,01103.0109,E,1,00,,104.1,M,0.0,M,,0000*42
$GPRMC,145430.000,A,5958.1293,N,01103.0109,E,000.00,0.0,140622,,,E*5D
$GPGGA,145431.000,5958.1293,N,01103.0109,E,1,00,,104.1,M,0.0,M,,0000*43
$GPRMC,145431.000,A,5958.1293,N,01103.0109,E,000.00,0.0,140622,,,E*5C
$GPGGA,145432.000,5958.1293,N,01103.0109,E,1,00,,104.1,M,0.0,M,,0000*40
$GPRMC,145432.000,A,5958.1293,N,01103.0109,E,000.00,0.0,140622,,,E*5F
$GPGGA,145433.000,5958.1293,N,01103.0109,E,1,00,,104.1,M,0.0,M,,0000*41
$GPRMC,145433.000,A,5958.1293,N,01103.0109,E,000.00,0.0,140622,,,E*5E
$GPGGA,145434.000,5958.1293,N,01103.0109,E,1,00,,104.1,M,0.0,M,,0000*46
$GPRMC,145434.000,A,5958.1293,N,01103.0109,E,000.00,0.0,140622,,,E*59
$GPGGA,145435.000,5958.1293,N,01103.0109,E,1,00,,104.1,M,0.0,M,,0000*47
$GPRMC,145435.000,A,5958.1293,N,01103.0109,E,000.00,0.0,140622,,,E*58
$GPGGA,145436.000,5958.1293,N,01103.0109,E,1,00,,104.1,M,0.0,M,,0000*44
$GPRMC,145436.000,A,5958.1293,N,01103.0109,E,000.00,0.0,140622,,,E*5B
$GPGGA,145437.000,5958.1293,N,01103.0109,E,1,00,,104.1,M,0.0,M,,0000*45
$GPRMC,145437.000,A,5958.1293,N,01103.0109,E,000.00,0.0,140622,,,E*5A
$GPGGA,145438.000,5958.1293,N,01103.0109,E,1,00,,104.1,M,0.0,M,,0000*4A
$GPRMC,145438.000,A,5958.1293,N,01103.0109,E,000.00,0.0,140622,,,E*55
$GPGGA,145439.000,5958.1293,N,01103.0109,E,1,00,,104.1,M,0.0,M,,0000*4B
$GPRMC,145439.000,A,5958.1293,N,01103.0109,E,000.00,0.0,140622,,,E*54
$GPGGA,145440.000,5958.1293,N,01103.0109,E,1,00,,104.1,M,0.0,M,,0000*45
$GPRMC,145440.000,A,5958.1293,N,01103.0109,E,000.00,0.0,140622,,,E*5A
$GPGGA,145441.000,5958.1293,N,01103.0109,E,1,00,,104.1,M,0.0,M,,0000*44
$GPRMC,145441.000,A,5958.1293,N,01103.0109,E,000.00,0.0,140622,,,E*5B
$GPGGA,145442.000,5958.1293,N,01103.0109,E,1,00,,104.1,M,0.0,M,,0000*47
$GPRMC,145442.000,A,5958.1293,N,01103.0109,E,000.00,0.0,140622,,,E*58
$GPGGA,145443.000,5958.1293,N,01103.0109,E,1,00,,104.1,M,0.0,M,,0000*46
$GPRMC,145443.000,A,5958.1293,N,01103.0109,E,000.00,0.0,140622,,,E*59
$GPGGA,145444.000,5958.1293,N,01103.0109,E,1,00,,104.1,M,0.0,M,,0000*41
$GPRMC,145444.000,A,5958.1293,N,01103.0109,E,000.00,0.0,140622,,,E*5E
$GPGGA,145445.000,5958.1293,N,01103.0108,E,1,00,,104.1,M,0.0,M,,0000*41
$GPRMC,145445.000,A,5958.1293,N,01103.0108,E,000.00,0.0,140622,,,E*5E
$GPGGA,145446.000,5958.1293,N,01103.0108,E,1,00,,104.1,M,0.0,M,,0000*42
$GPRMC,145446.000,A,5958.1293,N,01103.0108,E,000.00,0.0,140622,,,E*5D
$GPGGA,145447.000,5958.1293,N,01103.0108,E,1,00,,104.1,M,0.0,M,,0000*43
$GPRMC,145447.000,A,5958.1293,N,01103.0108,E,000.00,0.0,140622,,,E*5C
$GPGGA,145448.000,5958.1293,N,01103.0108,E,1,00,,104.1,M,0.0,M,,0000*4C
$GPRMC,145448.000,A,5958.1293,N,01103.0108,E,000.00,0.0,140622,,,E*53
$GPGGA,145449.000,5958.1293,N,01103.0108,E,1,00,,104.1,M,0.0,M,,0000*4D
$GPRMC,145449.000,A,5958.1293,N,01103.0108,E,000.00,0.0,140622,,,E*52
$GPGGA,145450.000,5958.1293,N,01103.0108,E,1,00,,104.1,M,0.0,M,,0000*45
$GPRMC,145450.000,A,5958.1293,N,01103.0108,E,000.00,0.0,140622,,,E*5A
$GPGGA,145451.000,5958.1293,N,01103.0108,E,1,00,,104.1,M,0.0,M,,0000*44
$GPRMC,145451.000,A,5958.1293,N,01103.0108,E,000.00,0.0,140622,,,E*5B
$GPGGA,145452.000,5958.1293,N,01103.0108,E,1,00,,104.1,M,0.0,M,,0000*47
$GPRMC,145452.000,A,5958.1293,N,01103.0108,E,000.00,0.0,140622,,,E*58
$GPGGA,145453.000,5958.1293,N,01103.0108,E,1,00,,104.2,M,0.0,M,,0000*45
$GPRMC,145453.000,A,5958.1293,N,01103.0108,E,000.00,0.0,140622,,,E*59
$GPGGA,145454.000,5958.1293,N,01103.0108,E,1,00,,104.2,M,0.0,M,,0000*42
$GPRMC,145454.000,A,5958.1293,N,01103.0108,E,000.00,0.0,140622,,,E*5E
$GPGGA,145455.000,5958.1293,N,01103.0108,E,1,00,,104.2,M,0.0,M,,0000*43
$GPRMC,145455.000,A,5958.1293,N,01103.0108,E,000.00,0.0,140622,,,E*5F
$GPGGA,145456.000,5958.1293,N,01103.0108,E,1,00,,104.2,M,0.0,M,,0000*40
$GPRMC,145456.000,A,5958.1293,N,01103.0108,E,000.00,0.0,140622,,,E*5C
$GPGGA,145457.000,5958.1293,N,01103.0108,E,1,00,,104.3,M,0.0,M,,0000*40
$GPRMC,145457.000,A,5958.1293,N,01103.0108,E,000.00,0.0,140622,,,E*5D
$GPGGA,145458.000,5958.1293,N,01103.0108,E,1,00,,104.3,M,0.0,M,,0000*4F
$GPRMC,145458.000,A,5958.1293,N,01103.0108,E,000.00,0.0,140622,,,E*52
$GPGGA,145459.000,5958.1293,N,01103.0108,E,1,00,,104.3,M,0.0,M,,0000*4E
$GPRMC,145459.000,A,5958.1293,N,01103.0108,E,000.00,0.0,140622,,,E*53
$GPGGA,145500.000,5958.1293,N,01103.0107,E,1,00,,104.5,M,0.0,M,,0000*4A
$GPRMC,145500.000,A,5958.1293,N,01103.0107,E,000.00,0.0,140622,,,E*51
$GPGGA,145501.000,5958.1293,N,01103.0107,E,1,00,,104.7,M,0.0,M,,0000*49
$GPRMC,145501.000,A,5958.1293,N,01103.0107,E,000.00,0.0,140622,,,E*50
$GPGGA,145502.000,5958.1293,N,01103.0107,E,1,00,,104.8,M,0.0,M,,0000*45
$GPRMC,145502.000,A,5958.1293,N,01103.0107,E,000.00,0.0,140622,,,E*53
$GPGGA,145503.000,5958.1293,N,01103.0106,E,1,00,,105.0,M,0.0,M,,0000*4C
$GPRMC,145503.000,A,5958.1293,N,01103.0106,E,000.00,0.0,140622,,,E*53
$GPGGA,145504.000,5958.1293,N,01103.0106,E,1,00,,105.1,M,0.0,M,,0000*4A
$GPRMC,145504.000,A,5958.1293,N,01103.0106,E,000.00,0.0,140622,,,E*54
$GPGGA,145505.000,5958.1293,N,01103.0105,E,1,00,,105.3,M,0.0,M,,0000*4A
$GPRMC,145505.000,A,5958.1293,N,01103.0105,E,000.00,0.0,140622,,,E*56
$GPGGA,145506.000,5958.1293,N,01103.0105,E,1,00,,105.4,M,0.0,M,,0000*4E
$GPRMC,145506.000,A,5958.1293,N,01103.0105,E,000.00,0.0,140622,,,E*55
$GPGGA,145507.000,5958.1293,N,01103.0105,E,1,00,,105.5,M,0.0,M,,0000*4E
$GPRMC,145507.000,A,5958.1293,N,01103.0105,E,000.00,0.0,140622,,,E*54
$GPGGA,145508.000,5958.1289,N,01103.0105,E,1,00,,105.6,M,0.0,M,,0000*49
$GPRMC,145508.000,A,5958.1289,N,01103.0105,E,000.00,0.0,140622,,,E*50
$GPGGA,145509.000,5958.1289,N,01103.0104,E,1,00,,105.7,M,0.0,M,,0000*48
$GPRMC,145509.000,A,5958.1289,N,01103.0104,E,000.00,0.0,140622,,,E*50
$GPGGA,145510.000,5958.1289,N,01103.0104,E,1,00,,105.9,M,0.0,M,,0000*4E
$GPRMC,145510.000,A,5958.1289,N,01103.0104,E,000.00,0.0,140622,,,E*58
$GPGGA,145511.000,5958.1289,N,01103.0104,E,1,00,,106.0,M,0.0,M,,0000*45
$GPRMC,145511.000,A,5958.1289,N,01103.0104,E,000.00,0.0,140622,,,E*59
$GPGGA,145512.000,5958.1289,N,01103.0104,E,1,00,,106.1,M,0.0,M,,0000*47
$GPRMC,145512.000,A,5958.1289,N,01103.0104,E,000.00,0.0,140622,,,E*5A
$GPGGA,145513.000,5958.1289,N,01103.0104,E,1,00,,106.2,M,0.0,M,,0000*45
$GPRMC,145513.000,A,5958.1289,N,01103.0104,E,000.00,0.0,140622,,,E*5B
$GPGGA,145514.000,5958.1289,N,01103.0104,E,1,00,,106.3,M,0.0,M,,0000*43
$GPRMC,145514.000,A,5958.1289,N,01103.0104,E,000.00,0.0,140622,,,E*5C
$GPGGA,145515.000,5958.1289,N,01103.0104,E,1,00,,106.4,M,0.0,M,,0000*45
$GPRMC,145515.000,A,5958.1289,N,01103.0104,E,000.00,0.0,140622,,,E*5D
$GPGGA,145516.000,5958.1289,N,01103.0104,E,1,00,,106.5,M,0.0,M,,0000*47
$GPRMC,145516.000,A,5958.1289,N,01103.0104,E,000.00,0.0,140622,,,E*5E
$GPGGA,145517.000,5958.1289,N,01103.0104,E,1,00,,106.5,M,0.0,M,,0000*46
$GPRMC,145517.000,A,5958.1289,N,01103.0104,E,000.00,0.0,140622,,,E*5F
$GPGGA,145518.000,5958.1289,N,01103.0104,E,1,00,,106.6,M,0.0,M,,0000*4A
$GPRMC,145518.000,A,5958.1289,N,01103.0104,E,000.00,0.0,140622,,,E*50
$GPGGA,145519.000,5958.1289,N,01103.0104,E,1,00,,106.7,M,0.0,M,,0000*4A
$GPRMC,145519.000,A,5958.1289,N,01103.0104,E,000.00,0.0,140622,,,E*51
$GPGGA,145520.000,5958.1289,N,01103.0104,E,1,00,,106.7,M,0.0,M,,0000*40
$GPRMC,145520.000,A,5958.1289,N,01103.0104,E,000.00,0.0,140622,,,E*5B
$GPGGA,145521.000,5958.1289,N,01103.0104,E,1,00,,106.8,M,0.0,M,,0000*4E
$GPRMC,145521.000,A,5958.1289,N,01103.0104,E,000.00,0.0,140622,,,E*5A
$GPGGA,145522.000,5958.1289,N,01103.0104,E,1,00,,106.8,M,0.0,M,,0000*4D
$GPRMC,145522.000,A,5958.1289,N,01103.0104,E,000.00,0.0,140622,,,E*59
$GPGGA,145523.000,5958.1289,N,01103.0104,E,1,00,,106.9,M,0.0,M,,0000*4D
$GPRMC,145523.000,A,5958.1289,N,01103.0104,E,000.00,0.0,140622,,,E*58
$GPGGA,145524.000,5958.1289,N,01103.0104,E,1,00,,106.9,M,0.0,M,,0000*4A
$GPRMC,145524.000,A,5958.1289,N,01103.0104,E,000.00,0.0,140622,,,E*5F
$GPGGA,145525.000,5958.1289,N,01103.0103,E,1,00,,107.0,M,0.0,M,,0000*44
$GPRMC,145525.000,A,5958.1289,N,01103.0103,E,000.00,0.0,140622,,,E*59
$GPGGA,145526.000,5958.1289,N,01103.0103,E,1,00,,107.0,M,0.0,M,,0000*47
$GPRMC,145526.000,A,5958.1289,N,01103.0103,E,000.00,0.0,140622,,,E*5A
$GPGGA,145527.000,5958.1289,N,01103.0103,E,1,00,,107.1,M,0.0,M,,0000*47
$GPRMC,145527.000,A,5958.1289,N,01103.0103,E,000.00,0.0,140622,,,E*5B
$GPGGA,145528.000,5958.1289,N,01103.0103,E,1,00,,107.1,M,0.0,M,,0000*48
$GPRMC,145528.000,A,5958.1289,N,01103.0103,E,000.00,0.0,140622,,,E*54
$GPGGA,145529.000,5958.1289,N,01103.0103,E,1,00,,107.2,M,0.0,M,,0000*4A
$GPRMC,145529.000,A,5958.1289,N,01103.0103,E,000.00,0.0,140622,,,E*55
$GPGGA,145530.000,5958.1284,N,01103.0103,E,1,00,,107.2,M,0.0,M,,0000*4F
$GPRMC,145530.000,A,5958.1284,N,01103.0103,E,000.00,0.0,140622,,,E*50
$GPGGA,145531.000,5958.1284,N,01103.0103,E,1,00,,107.2,M,0.0,M,,0000*4E
$GPRMC,145531.000,A,5958.1284,N,01103.0103,E,000.00,0.0,140622,,,E*51
$GPGGA,145532.000,5958.1284,N,01103.0103,E,1,00,,107.3,M,0.0,M,,0000*4C
$GPRMC,145532.000,A,5958.1284,N,01103.0103,E,000.00,0.0,140622,,,E*52
$GPGGA,145533.000,5958.1284,N,01103.0103,E,1,00,,107.3,M,0.0,M,,0000*4D
$GPRMC,145533.000,A,5958.1284,N,01103.0103,E,000.00,0.0,140622,,,E*53
$GPGGA,145534.000,5958.1284,N,01103.0103,E,1,00,,107.4,M,0.0,M,,0000*4D
$GPRMC,145534.000,A,5958.1284,N,01103.0103,E,000.00,0.0,140622,,,E*54
$GPGGA,145535.000,5958.1284,N,01103.0103,E,1,00,,107.4,M,0.0,M,,0000*4C
$GPRMC,145535.000,A,5958.1284,N,01103.0103,E,000.00,0.0,140622,,,E*55
$GPGGA,145536.000,5958.1284,N,01103.0103,E,1,00,,107.5,M,0.0,M,,0000*4E
$GPRMC,145536.000,A,5958.1284,N,01103.0103,E,000.00,0.0,140622,,,E*56
$GPGGA,145537.000,5958.1284,N,01103.0103,E,1,00,,107.5,M,0.0,M,,0000*4F
$GPRMC,145537.000,A,5958.1284,N,01103.0103,E,000.00,0.0,140622,,,E*57
$GPGGA,145538.000,5958.1284,N,01103.0103,E,1,00,,107.5,M,0.0,M,,0000*40
$GPRMC,145538.000,A,5958.1284,N,01103.0103,E,000.00,0.0,140622,,,E*58
$GPGGA,145539.000,5958.1284,N,01103.0104,E,1,00,,107.5,M,0.0,M,,0000*46
$GPRMC,145539.000,A,5958.1284,N,01103.0104,E,000.00,0.0,140622,,,E*5E
$GPGGA,145540.000,5958.1284,N,01103.0104,E,1,00,,107.6,M,0.0,M,,0000*4B
$GPRMC,145540.000,A,5958.1284,N,01103.0104,E,000.00,0.0,140622,,,E*50
$GPGGA,145541.000,5958.1284,N,01103.0104,E,1,00,,107.6,M,0.0,M,,0000*4A
$GPRMC,145541.000,A,5958.1284,N,01103.0104,E,000.00,0.0,140622,,,E*51
$GPGGA,145542.000,5958.1284,N,01103.0104,E,1,00,,107.6,M,0.0,M,,0000*49
$GPRMC,145542.000,A,5958.1284,N,01103.0104,E,000.00,0.0,140622,,,E*52
$GPGGA,145543.000,5958.1284,N,01103.0103,E,1,00,,107.7,M,0.0,M,,0000*4E
$GPRMC,145543.000,A,5958.1284,N,01103.0103,E,000.00,0.0,140622,,,E*54
$GPGGA,145544.000,5958.1284,N,01103.0103,E,1,00,,107.7,M,0.0,M,,0000*49
$GPRMC,145544.000,A,5958.1284,N,01103.0103,E,000.00,0.0,140622,,,E*53
$GPGGA,145545.000,5958.1284,N,01103.0103,E,1,00,,107.7,M,0.0,M,,0000*48
$GPRMC,145545.000,A,5958.1284,N,01103.0103,E,000.00,0.0,140622,,,E*52
$GPGGA,145546.000,5958.1284,N,01103.0103,E,1,00,,107.7,M,0.0,M,,0000*4B
$GPRMC,145546.000,A,5958.1284,N,01103.0103,E,000.00,0.0,140622,,,E*51
$GPGGA,145547.000,5958.1284,N,01103.0103,E,1,00,,107.7,M,0.0,M,,0000*4A
$GPRMC,145547.000,A,5958.1284,N,01103.0103,E,000.00,0.0,140622,,,E*50
$GPGGA,145548.000,5958.1284,N,01103.0103,E,1,00,,107.7,M,0.0,M,,0000*45
$GPRMC,145548.000,A,5958.1284,N,01103.0103,E,000.00,0.0,140622,,,E*5F
$GPGGA,145549.000,5958.1284,N,01103.0103,E,1,00,,107.7,M,0.0,M,,0000*44
$GPRMC,145549.000,A,5958.1284,N,01103.0103,E,000.00,0.0,140622,,,E*5E
$GPGGA,145550.000,5958.1284,N,01103.0103,E,1,00,,107.7,M,0.0,M,,0000*4C
$GPRMC,145550.000,A,5958.1284,N,01103.0103,E,000.00,0.0,140622,,,E*56
$GPGGA,145551.000,5958.1284,N,01103.0103,E,1,00,,107.7,M,0.0,M,,0000*4D
$GPRMC,145551.000,A,5958.1284,N,01103.0103,E,000.00,0.0,140622,,,E*57
$GPGGA,145552.000,5958.1284,N,01103.0103,E,1,00,,107.7,M,0.0,M,,0000*4E
$GPRMC,145552.000,A,5958.1284,N,01103.0103,E,000.00,0.0,140622,,,E*54
$GPGGA,145553.000,5958.1284,N,01103.0103,E,1,00,,107.7,M,0.0,M,,0000*4F
$GPRMC,145553.000,A,5958.1284,N,01103.0103,E,000.00,0.0,140622,,,E*55
$GPGGA,145554.000,5958.1284,N,01103.0103,E,1,00,,107.7,M,0.0,M,,0000*48
$GPRMC,145554.000,A,5958.1284,N,01103.0103,E,000.00,0.0,140622,,,E*52
$GPGGA,145555.000,5958.1284,N,01103.0103,E,1,00,,107.7,M,0.0,M,,0000*49
$GPRMC,145555.000,A,5958.1284,N,01103.0103,E,000.00,0.0,140622,,,E*53
$GPGGA,145556.000,5958.1284,N,01103.0103,E,1,00,,107.7,M,0.0,M,,0000*4A
$GPRMC,145556.000,A,5958.1284,N,01103.0103,E,000.00,0.0,140622,,,E*50
$GPGGA,145557.000,5958.1284,N,01103.0102,E,1,00,,107.7,M,0.0,M,,0000*4A
$GPRMC,145557.000,A,5958.1284,N,01103.0102,E,000.00,0.0,140622,,,E*50
$GPGGA,145558.000,5958.1284,N,01103.0102,E,1,00,,107.7,M,0.0,M,,0000*45
$GPRMC,145558.000,A,5958.1284,N,01103.0102,E,000.00,0.0,140622,,,E*5F
$GPGGA,145559.000,5958.1284,N,01103.0102,E,1,00,,107.7,M,0.0,M,,0000*44
$GPRMC,145559.000,A,5958.1284,N,01103.0102,E,000.00,0.0,140622,,,E*5E
$GPGGA,145600.000,5958.1284,N,01103.0101,E,1,00,,107.7,M,0.0,M,,0000*48
$GPRMC,145600.000,A,5958.1284,N,01103.0101,E,000.00,0.0,140622,,,E*52
$GPGGA,145601.000,5958.1284,N,01103.0101,E,1,00,,107.7,M,0.0,M,,0000*49
$GPRMC,145601.000,A,5958.1284,N,01103.0101,E,000.00,0.0,140622,,,E*53
$GPGGA,145602.000,5958.1284,N,01103.0101,E,1,00,,107.7,M,0.0,M,,0000*4A
$GPRMC,145602.000,A,5958.1284,N,01103.0101,E,000.00,0.0,140622,,,E*50
$GPGGA,145603.000,5958.1284,N,01103.0101,E,1,00,,107.7,M,0.0,M,,0000*4B
$GPRMC,145603.000,A,5958.1284,N,01103.0101,E,000.00,0.0,140622,,,E*51
$GPGGA,145604.000,5958.1284,N,01103.0101,E,1,00,,107.6,M,0.0,M,,0000*4D
$GPRMC,145604.000,A,5958.1284,N,01103.0101,E,000.00,0.0,140622,,,E*56
$GPGGA,145605.000,5958.1284,N,01103.0101,E,1,00,,107.6,M,0.0,M,,0000*4C
$GPRMC,145605.000,A,5958.1284,N,01103.0101,E,000.00,0.0,140622,,,E*57
$GPGGA,145606.000,5958.1284,N,01103.0100,E,1,00,,107.6,M,0.0,M,,0000*4E
$GPRMC,145606.000,A,5958.1284,N,01103.0100,E,000.00,0.0,140622,,,E*55
$GPGGA,145607.000,5958.1284,N,01103.0100,E,1,00,,107.6,M,0.0,M,,0000*4F
$GPRMC,145607.000,A,5958.1284,N,01103.0100,E,000.00,0.0,140622,,,E*54
$GPGGA,145608.000,5958.1284,N,01103.0100,E,1,00,,107.6,M,0.0,M,,0000*40
$GPRMC,145608.000,A,5958.1284,N,01103.0100,E,000.00,0.0,140622,,,E*5B
$GPGGA,145609.000,5958.1284,N,01103.0100,E,1,00,,107.6,M,0.0,M,,0000*41
$GPRMC,145609.000,A,5958.1284,N,01103.0100,E,000.00,0.0,140622,,,E*5A
$GPGGA,145610.000,5958.1284,N,01103.0100,E,1,00,,107.6,M,0.0,M,,0000*49
$GPRMC,145610.000,A,5958.1284,N,01103.0100,E,000.00,0.0,140622,,,E*52
$GPGGA,145611.000,5958.1284,N,01103.0100,E,1,00,,107.6,M,0.0,M,,0000*48
$GPRMC,145611.000,A,5958.1284,N,01103.0100,E,000.00,0.0,140622,,,E*53
$GPGGA,145612.000,5958.1284,N,01103.0099,E,1,00,,107.6,M,0.0,M,,0000*4A
$GPRMC,145612.000,A,5958.1284,N,01103.0099,E,000.00,0.0,140622,,,E*51
$GPGGA,145613.000,5958.1284,N,01103.0099,E,1,00,,107.6,M,0.0,M,,0000*4B
$GPRMC,145613.000,A,5958.1284,N,01103.0099,E,000.00,0.0,140622,,,E*50
$GPGGA,145614.000,5958.1284,N,01103.0099,E,1,00,,107.5,M,0.0,M,,0000*4F
$GPRMC,145614.000,A,5958.1284,N,01103.0099,E,000.00,0.0,140622,,,E*57
$GPGGA,145615.000,5958.1284,N,01103.0099,E,1,00,,107.5,M,0.0,M,,0000*4E
$GPRMC,145615.000,A,5958.1284,N,01103.0099,E,000.00,0.0,140622,,,E*56
$GPGGA,145616.000,5958.1284,N,01103.0099,E,1,00,,107.5,M,0.0,M,,0000*4D
$GPRMC,145616.000,A,5958.1284,N,01103.0099,E,000.00,0.0,140622,,,E*55
$GPGGA,145617.000,5958.1284,N,01103.0098,E,1,00,,107.5,M,0.0,M,,0000*4D
$GPRMC,145617.000,A,5958.1284,N,01103.0098,E,000.00,0.0,140622,,,E*55
$GPGGA,145618.000,5958.1284,N,01103.0098,E,1,00,,107.5,M,0.0,M,,0000*42
$GPRMC,145618.000,A,5958.1284,N,01103.0098,E,000.00,0.0,140622,,,E*5A
$GPGGA,145619.000,5958.1284,N,01103.0097,E,1,00,,107.5,M,0.0,M,,0000*4C
$GPRMC,145619.000,A,5958.1284,N,01103.0097,E,000.00,0.0,140622,,,E*54
$GPGGA,145620.000,5958.1284,N,01103.0097,E,1,00,,107.5,M,0.0,M,,0000*46
$GPRMC,145620.000,A,5958.1284,N,01103.0097,E,000.00,0.0,140622,,,E*5E
$GPGGA,145621.000,5958.1284,N,01103.0097,E,1,00,,107.4,M,0.0,M,,0000*46
$GPRMC,145621.000,A,5958.1284,N,01103.0097,E,000.00,0.0,140622,,,E*5F
$GPGGA,145622.000,5958.1284,N,01103.0097,E,1,00,,107.4,M,0.0,M,,0000*45
$GPRMC,145622.000,A,5958.1284,N,01103.0097,E,000.00,0.0,140622,,,E*5C
$GPGGA,145623.000,5958.1284,N,01103.0097,E,1,00,,107.4,M,0.0,M,,0000*44
$GPRMC,145623.000,A,5958.1284,N,01103.0097,E,000.00,0.0,140622,,,E*5D
$GPGGA,145624.000,5958.1284,N,01103.0097,E,1,00,,107.4,M,0.0,M,,0000*43
$GPRMC,145624.000,A,5958.1284,N,01103.0097,E,000.00,0.0,140622,,,E*5A
$GPGGA,145625.000,5958.1284,N,01103.0096,E,1,00,,107.3,M,0.0,M,,0000*44
$GPRMC,145625.000,A,5958.1284,N,01103.0096,E,000.00,0.0,140622,,,E*5A
$GPGGA,145626.000,5958.1284,N,01103.0096,E,1,00,,107.3,M,0.0,M,,0000*47
$GPRMC,145626.000,A,5958.1284,N,01103.0096,E,000.00,0.0,140622,,,E*59
$GPGGA,145627.000,5958.1284,N,01103.0096,E,1,00,,107.3,M,0.0,M,,0000*46
$GPRMC,145627.000,A,5958.1284,N,01103.0096,E,000.00,0.0,140622,,,E*58
$GPGGA,145628.000,5958.1284,N,01103.0096,E,1,00,,107.3,M,0.0,M,,0000*49
$GPRMC,145628.000,A,5958.1284,N,01103.0096,E,000.00,0.0,140622,,,E*57
$GPGGA,145629.000,5958.1284,N,01103.0096,E,1,00,,107.2,M,0.0,M,,0000*49
$GPRMC,145629.000,A,5958.1284,N,01103.0096,E,000.00,0.0,140622,,,E*56
$GPGGA,145630.000,5958.1284,N,01103.0095,E,1,00,,107.2,M,0.0,M,,0000*42
$GPRMC,145630.000,A,5958.1284,N,01103.0095,E,000.00,0.0,140622,,,E*5D
$GPGGA,145631.000,5958.1284,N,01103.0095,E,1,00,,107.2,M,0.0,M,,0000*43
$GPRMC,145631.000,A,5958.1284,N,01103.0095,E,000.00,0.0,140622,,,E*5C
$GPGGA,145632.000,5958.1284,N,01103.0095,E,1,00,,107.2,M,0.0,M,,0000*40
$GPRMC,145632.000,A,5958.1284,N,01103.0095,E,000.00,0.0,140622,,,E*5F
$GPGGA,145633.000,5958.1284,N,01103.0095,E,1,00,,107.1,M,0.0,M,,0000*42
$GPRMC,145633.000,A,5958.1284,N,01103.0095,E,000.00,0.0,140622,,,E*5E
$GPGGA,145634.000,5958.1284,N,01103.0094,E,1,00,,107.1,M,0.0,M,,0000*44
$GPRMC,145634.000,A,5958.1284,N,01103.0094,E,000.00,0.0,140622,,,E*58
$GPGGA,145635.000,5958.1284,N,01103.0094,E,1,00,,107.0,M,0.0,M,,0000*44
$GPRMC,145635.000,A,5958.1284,N,01103.0094,E,000.00,0.0,140622,,,E*59
$GPGGA,145636.000,5958.1284,N,01103.0094,E,1,00,,106.9,M,0.0,M,,0000*4F
$GPRMC,145636.000,A,5958.1284,N,01103.0094,E,000.00,0.0,140622,,,E*5A
$GPGGA,145637.000,5958.1284,N,01103.0094,E,1,00,,106.8,M,0.0,M,,0000*4F
$GPRMC,145637.000,A,5958.1284,N,01103.0094,E,000.00,0.0,140622,,,E*5B
$GPGGA,145638.000,5958.1284,N,01103.0094,E,1,00,,106.7,M,0.0,M,,0000*4F
$GPRMC,145638.000,A,5958.1284,N,01103.0094,E,000.00,0.0,140622,,,E*54
$GPGGA,145639.000,5958.1284,N,01103.0093,E,1,00,,106.7,M,0.0,M,,0000*49
$GPRMC,145639.000,A,5958.1284,N,01103.0093,E,000.00,0.0,140622,,,E*52
$GPGGA,145640.000,5958.1284,N,01103.0093,E,1,00,,106.6,M,0.0,M,,0000*46
$GPRMC,145640.000,A,5958.1284,N,01103.0093,E,000.00,0.0,140622,,,E*5C
$GPGGA,145641.000,5958.1284,N,01103.0093,E,1,00,,106.5,M,0.0,M,,0000*44
$GPRMC,145641.000,A,5958.1284,N,01103.0093,E,000.00,0.0,140622,,,E*5D
$GPGGA,145642.000,5958.1284,N,01103.0093,E,1,00,,106.4,M,0.0,M,,0000*46
$GPRMC,145642.000,A,5958.1284,N,01103.0093,E,000.00,0.0,140622,,,E*5E
$GPGGA,145643.000,5958.1284,N,01103.0093,E,1,00,,106.3,M,0.0,M,,0000*40
$GPRMC,145643.000,A,5958.1284,N,01103.0093,E,000.00,0.0,140622,,,E*5F
$GPGGA,145644.000,5958.1284,N,01103.0093,E,1,00,,106.3,M,0.0,M,,0000*47
$GPRMC,145644.000,A,5958.1284,N,01103.0093,E,000.00,0.0,140622,,,E*58
$GPGGA,145645.000,5958.1284,N,01103.0093,E,1,00,,106.2,M,0.0,M,,0000*47
$GPRMC,145645.000,A,5958.1284,N,01103.0093,E,000.00,0.0,140622,,,E*59
$GPGGA,145646.000,5958.1284,N,01103.0093,E,1,00,,106.1,M,0.0,M,,0000*47
$GPRMC,145646.000,A,5958.1284,N,01103.0093,E,000.00,0.0,140622,,,E*5A
$GPGGA,145647.000,5958.1284,N,01103.0093,E,1,00,,106.1,M,0.0,M,,0000*46
$GPRMC,145647.000,A,5958.1284,N,01103.0093,E,000.00,0.0,140622,,,E*5B
$GPGGA,145648.000,5958.1284,N,01103.0093,E,1,00,,106.0,M,0.0,M,,0000*48
$GPRMC,145648.000,A,5958.1284,N,01103.0093,E,000.00,0.0,140622,,,E*54
$GPGGA,145649.000,5958.1284,N,01103.0093,E,1,00,,105.9,M,0.0,M,,0000*43
$GPRMC,145649.000,A,5958.1284,N,01103.0093,E,000.00,0.0,140622,,,E*55
$GPGGA,145650.000,5958.1284,N,01103.0093,E,1,00,,105.8,M,0.0,M,,0000*4A
$GPRMC,145650.000,A,5958.1284,N,01103.0093,E,000.00,0.0,140622,,,E*5D
$GPGGA,145651.000,5958.1284,N,01103.0093,E,1,00,,105.7,M,0.0,M,,0000*44
$GPRMC,145651.000,A,5958.1284,N,01103.0093,E,000.00,0.0,140622,,,E*5C
$GPGGA,145652.000,5958.1284,N,01103.0093,E,1,00,,105.7,M,0.0,M,,0000*47
$GPRMC,145652.000,A,5958.1284,N,01103.0093,E,000.00,0.0,140622,,,E*5F
$GPGGA,145653.000,5958.1284,N,01103.0093,E,1,00,,105.6,M,0.0,M,,0000*47
$GPRMC,145653.000,A,5958.1284,N,01103.0093,E,000.00,0.0,140622,,,E*5E
$GPGGA,145654.000,5958.1284,N,01103.0093,E,1,00,,105.5,M,0.0,M,,0000*43
$GPRMC,145654.000,A,5958.1284,N,01103.0093,E,000.00,0.0,140622,,,E*59
$GPGGA,145655.000,5958.1284,N,01103.0093,E,1,00,,105.5,M,0.0,M,,0000*42
$GPRMC,145655.000,A,5958.1284,N,01103.0093,E,000.00,0.0,140622,,,E*58
$GPGGA,145656.000,5958.1284,N,01103.0093,E,1,00,,105.4,M,0.0,M,,0000*40
$GPRMC,145656.000,A,5958.1284,N,01103.0093,E,000.00,0.0,140622,,,E*5B
$GPGGA,145657.000,5958.1284,N,01103.0093,E,1,00,,105.4,M,0.0,M,,0000*41
$GPRMC,145657.000,A,5958.1284,N,01103.0093,E,000.00,0.0,140622,,,E*5A
$GPGGA,145658.000,5958.1284,N,01103.0093,E,1,00,,105.3,M,0.0,M,,0000*49
$GPRMC,145658.000,A,5958.1284,N,01103.0093,E,000.00,0.0,140622,,,E*55
$GPGGA,145659.000,5958.1284,N,01103.0093,E,1,00,,105.2,M,0.0,M,,0000*49
$GPRMC,145659.000,A,5958.1284,N,01103.0093,E,000.00,0.0,140622,,,E*54
$GPGGA,145700.000,5958.1284,N,01103.0092,E,1,00,,105.2,M,0.0,M,,0000*45
$GPRMC,145700.000,A,5958.1284,N,01103.0092,E,000.00,0.0,140622,,,E*58
$GPGGA,145701.000,5958.1289,N,01103.0092,E,1,00,,105.1,M,0.0,M,,0000*4A
$GPRMC,145701.000,A,5958.1289,N,01103.0092,E,000.00,0.0,140622,,,E*54
$GPGGA,145702.000,5958.1289,N,01103.0092,E,1,00,,105.1,M,0.0,M,,0000*49
$GPRMC,145702.000,A,5958.1289,N,01103.0092,E,000.00,0.0,140622,,,E*57
$GPGGA,145703.000,5958.1289,N,01103.0092,E,1,00,,105.0,M,0.0,M,,0000*49
$GPRMC,145703.000,A,5958.1289,N,01103.0092,E,000.00,0.0,140622,,,E*56
$GPGGA,145704.000,5958.1289,N,01103.0092,E,1,00,,104.9,M,0.0,M,,0000*46
$GPRMC,145704.000,A,5958.1289,N,01103.0092,E,000.00,0.0,140622,,,E*51
$GPGGA,145705.000,5958.1289,N,01103.0092,E,1,00,,104.9,M,0.0,M,,0000*47
$GPRMC,145705.000,A,5958.1289,N,01103.0092,E,000.00,0.0,140622,,,E*50
$GPGGA,145706.000,5958.1289,N,01103.0092,E,1,00,,104.8,M,0.0,M,,0000*45
$GPRMC,145706.000,A,5958.1289,N,01103.0092,E,000.00,0.0,140622,,,E*53
$GPGGA,145707.000,5958.1289,N,01103.0092,E,1,00,,104.8,M,0.0,M,,0000*44
$GPRMC,145707.000,A,5958.1289,N,01103.0092,E,000.00,0.0,140622,,,E*52
$GPGGA,145708.000,5958.1289,N,01103.0092,E,1,00,,104.7,M,0.0,M,,0000*44
$GPRMC,145708.000,A,5958.1289,N,01103.0092,E,000.00,0.0,140622,,,E*5D
$GPGGA,145709.000,5958.1289,N,01103.0092,E,1,00,,104.7,M,0.0,M,,0000*45
$GPRMC,145709.000,A,5958.1289,N,01103.0092,E,000.00,0.0,140622,,,E*5C
$GPGGA,145710.000,5958.1289,N,01103.0092,E,1,00,,104.7,M,0.0,M,,0000*4D
$GPRMC,145710.000,A,5958.1289,N,01103.0092,E,000.00,0.0,140622,,,E*54
$GPGGA,145711.000,5958.1289,N,01103.0092,E,1,00,,104.6,M,0.0,M,,0000*4D
$GPRMC,145711.000,A,5958.1289,N,01103.0092,E,000.00,0.0,140622,,,E*55
$GPGGA,145712.000,5958.1289,N,01103.0092,E,1,00,,104.6,M,0.0,M,,0000*4E
$GPRMC,145712.000,A,5958.1289,N,01103.0092,E,000.00,0.0,140622,,,E*56
$GPGGA,145713.000,5958.1289,N,01103.0091,E,1,00,,104.5,M,0.0,M,,0000*4F
$GPRMC,145713.000,A,5958.1289,N,01103.0091,E,000.00,0.0,140622,,,E*54
$GPGGA,145714.000,5958.1289,N,01103.0091,E,1,00,,104.5,M,0.0,M,,0000*48
$GPRMC,145714.000,A,5958.1289,N,01103.0091,E,000.00,0.0,140622,,,E*53
$GPGGA,145715.000,5958.1289,N,01103.0091,E,1,00,,104.5,M,0.0,M,,0000*49
$GPRMC,145715.000,A,5958.1289,N,01103.0091,E,000.00,0.0,140622,,,E*52
$GPGGA,145716.000,5958.1289,N,01103.0091,E,1,00,,104.4,M,0.0,M,,0000*4B
$GPRMC,145716.000,A,5958.1289,N,01103.0091,E,000.00,0.0,140622,,,E*51
$GPGGA,145717.000,5958.1289,N,01103.0091,E,1,00,,104.4,M,0.0,M,,0000*4A
$GPRMC,145717.000,A,5958.1289,N,01103.0091,E,000.00,0.0,140622,,,E*50
$GPGGA,145718.000,5958.1289,N,01103.0091,E,1,00,,104.4,M,0.0,M,,0000*45
$GPRMC,145718.000,A,5958.1289,N,01103.0091,E,000.00,0.0,140622,,,E*5F
$GPGGA,145719.000,5958.1289,N,01103.0091,E,1,00,,104.3,M,0.0,M,,0000*43
$GPRMC,145719.000,A,5958.1289,N,01103.0091,E,000.00,0.0,140622,,,E*5E
$GPGGA,145720.000,5958.1289,N,01103.0091,E,1,00,,104.3,M,0.0,M,,0000*49
$GPRMC,145720.000,A,5958.1289,N,01103.0091,E,000.00,0.0,140622,,,E*54
$GPGGA,145721.000,5958.1289,N,01103.0091,E,1,00,,104.2,M,0.0,M,,0000*49
$GPRMC,145721.000,A,5958.1289,N,01103.0091,E,000.00,0.0,140622,,,E*55
$GPGGA,145722.000,5958.1289,N,01103.0091,E,1,00,,104.2,M,0.0,M,,0000*4A
$GPRMC,145722.000,A,5958.1289,N,01103.0091,E,000.00,0.0,140622,,,E*56
$GPGGA,145723.000,5958.1289,N,01103.0091,E,1,00,,104.2,M,0.0,M,,0000*4B
$GPRMC,145723.000,A,5958.1289,N,01103.0091,E,000.00,0.0,140622,,,E*57
$GPGGA,145724.000,5958.1289,N,01103.0091,E,1,00,,104.1,M,0.0,M,,0000*4F
$GPRMC,145724.000,A,5958.1289,N,01103.0091,E,000.00,0.0,140622,,,E*50
$GPGGA,145725.000,5958.1289,N,01103.0091,E,1,00,,104.1,M,0.0,M,,0000*4E
$GPRMC,145725.000,A,5958.1289,N,01103.0091,E,000.00,0.0,140622,,,E*51
$GPGGA,145726.000,5958.1289,N,01103.0091,E,1,00,,104.1,M,0.0,M,,0000*4D
$GPRMC,145726.000,A,5958.1289,N,01103.0091,E,000.00,0.0,140622,,,E*52
$GPGGA,145727.000,5958.1289,N,01103.0091,E,1,00,,104.0,M,0.0,M,,0000*4D
$GPRMC,145727.000,A,5958.1289,N,01103.0091,E,000.00,0.0,140622,,,E*53
$GPGGA,145728.000,5958.1289,N,01103.0091,E,1,00,,104.0,M,0.0,M,,0000*42
$GPRMC,145728.000,A,5958.1289,N,01103.0091,E,000.00,0.0,140622,,,E*5C
$GPGGA,145729.000,5958.1289,N,01103.0091,E,1,00,,103.9,M,0.0,M,,0000*4D
$GPRMC,145729.000,A,5958.1289,N,01103.0091,E,000.00,0.0,140622,,,E*5D
$GPGGA,145730.000,5958.1289,N,01103.0091,E,1,00,,103.9,M,0.0,M,,0000*45
$GPRMC,145730.000,A,5958.1289,N,01103.0091,E,000.00,0.0,140622,,,E*55
$GPGGA,145731.000,5958.1289,N,01103.0091,E,1,00,,103.8,M,0.0,M,,0000*45
$GPRMC,145731.000,A,5958.1289,N,01103.0091,E,000.00,0.0,140622,,,E*54
$GPGGA,145732.000,5958.1289,N,01103.0092,E,1,00,,103.7,M,0.0,M,,0000*4A
$GPRMC,145732.000,A,5958.1289,N,01103.0092,E,000.00,0.0,140622,,,E*54
$GPGGA,145733.000,5958.1289,N,01103.0092,E,1,00,,103.7,M,0.0,M,,0000*4B
$GPRMC,145733.000,A,5958.1289,N,01103.0092,E,000.00,0.0,140622,,,E*55
$GPGGA,145734.000,5958.1289,N,01103.0092,E,1,00,,103.6,M,0.0,M,,0000*4D
$GPRMC,145734.000,A,5958.1289,N,01103.0092,E,000.00,0.0,140622,,,E*52
$GPGGA,145735.000,5958.1289,N,01103.0093,E,1,00,,103.6,M,0.0,M,,0000*4D
$GPRMC,145735.000,A,5958.1289,N,01103.0093,E,000.00,0.0,140622,,,E*52
$GPGGA,145736.000,5958.1289,N,01103.0093,E,1,00,,103.5,M,0.0,M,,0000*4D
$GPRMC,145736.000,A,5958.1289,N,01103.0093,E,000.00,0.0,140622,,,E*51
$GPGGA,145737.000,5958.1289,N,01103.0093,E,1,00,,103.5,M,0.0,M,,0000*4C
$GPRMC,145737.000,A,5958.1289,N,01103.0093,E,000.00,0.0,140622,,,E*50
$GPGGA,145738.000,5958.1289,N,01103.0093,E,1,00,,103.4,M,0.0,M,,0000*42
$GPRMC,145738.000,A,5958.1289,N,01103.0093,E,000.00,0.0,140622,,,E*5F
$GPGGA,145739.000,5958.1289,N,01103.0093,E,1,00,,103.4,M,0.0,M,,0000*43
$GPRMC,145739.000,A,5958.1289,N,01103.0093,E,000.00,0.0,140622,,,E*5E
$GPGGA,145740.000,5958.1289,N,01103.0093,E,1,00,,103.4,M,0.0,M,,0000*4D
$GPRMC,145740.000,A,5958.1289,N,01103.0093,E,000.00,0.0,140622,,,E*50
$GPGGA,145741.000,5958.1289,N,01103.0093,E,1,00,,103.3,M,0.0,M,,0000*4B
$GPRMC,145741.000,A,5958.1289,N,01103.0093,E,000.00,0.0,140622,,,E*51
$GPGGA,145742.000,5958.1289,N,01103.0093,E,1,00,,103.3,M,0.0,M,,0000*48
$GPRMC,145742.000,A,5958.1289,N,01103.0093,E,000.00,0.0,140622,,,E*52
$GPGGA,145743.000,5958.1289,N,01103.0093,E,1,00,,103.3,M,0.0,M,,0000*49
$GPRMC,145743.000,A,5958.1289,N,01103.0093,E,000.00,0.0,140622,,,E*53
$GPGGA,145744.000,5958.1289,N,01103.0093,E,1,00,,103.2,M,0.0,M,,0000*4F
$GPRMC,145744.000,A,5958.1289,N,01103.0093,E,000.00,0.0,140622,,,E*54
$GPGGA,145745.000,5958.1289,N,01103.0093,E,1,00,,103.2,M,0.0,M,,0000*4E
$GPRMC,145745.000,A,5958.1289,N,01103.0093,E,000.00,0.0,140622,,,E*55
$GPGGA,145746.000,5958.1289,N,01103.0093,E,1,00,,103.2,M,0.0,M,,0000*4D
$GPRMC,145746.000,A,5958.1289,N,01103.0093,E,000.00,0.0,140622,,,E*56
$GPGGA,145747.000,5958.1293,N,01103.0093,E,1,00,,103.2,M,0.0,M,,0000*47
$GPRMC,145747.000,A,5958.1293,N,01103.0093,E,000.00,0.0,140622,,,E*5C
$GPGGA,145748.000,5958.1293,N,01103.0093,E,1,00,,103.2,M,0.0,M,,0000*48
$GPRMC,145748.000,A,5958.1293,N,01103.0093,E,000.00,0.0,140622,,,E*53
$GPGGA,145749.000,5958.1293,N,01103.0093,E,1,00,,103.2,M,0.0,M,,0000*49
$GPRMC,145749.000,A,5958.1293,N,01103.0093,E,000.00,0.0,140622,,,E*52
$GPGGA,145750.000,5958.1293,N,01103.0094,E,1,00,,103.2,M,0.0,M,,0000*46
$GPRMC,145750.000,A,5958.1293,N,01103.0094,E,000.00,0.0,140622,,,E*5D
$GPGGA,145751.000,5958.1293,N,01103.0094,E,1,00,,103.2,M,0.0,M,,0000*47
$GPRMC,145751.000,A,5958.1293,N,01103.0094,E,000.00,0.0,140622,,,E*5C
$GPGGA,145752.000,5958.1293,N,01103.0094,E,1,00,,103.2,M,0.0,M,,0000*44
$GPRMC,145752.000,A,5958.1293,N,01103.0094,E,000.00,0.0,140622,,,E*5F
$GPGGA,145753.000,5958.1293,N,01103.0094,E,1,00,,103.2,M,0.0,M,,0000*45
$GPRMC,145753.000,A,5958.1293,N,01103.0094,E,000.00,0.0,140622,,,E*5E
$GPGGA,145754.000,5958.1293,N,01103.0094,E,1,00,,103.2,M,0.0,M,,0000*42
$GPRMC,145754.000,A,5958.1293,N,01103.0094,E,000.00,0.0,140622,,,E*59
$GPGGA,145755.000,5958.1293,N,01103.0094,E,1,00,,103.2,M,0.0,M,,0000*43
$GPRMC,145755.000,A,5958.1293,N,01103.0094,E,000.00,0.0,140622,,,E*58
$GPGGA,145756.000,5958.1293,N,01103.0094,E,1,00,,103.1,M,0.0,M,,0000*43
$GPRMC,145756.000,A,5958.1293,N,01103.0094,E,000.00,0.0,140622,,,E*5B
$GPGGA,145757.000,5958.1293,N,01103.0094,E,1,00,,103.1,M,0.0,M,,0000*42
$GPRMC,145757.000,A,5958.1293,N,01103.0094,E,000.00,0.0,140622,,,E*5A
$GPGGA,145758.000,5958.1293,N,01103.0094,E,1,00,,103.1,M,0.0,M,,0000*4D
$GPRMC,145758.000,A,5958.1293,N,01103.0094,E,000.00,0.0,140622,,,E*55
$GPGGA,145759.000,5958.1293,N,01103.0094,E,1,00,,103.1,M,0.0,M,,0000*4C
$GPRMC,145759.000,A,5958.1293,N,01103.0094,E,000.00,0.0,140622,,,E*54
$GPGGA,145800.000,5958.1293,N,01103.0094,E,1,00,,103.1,M,0.0,M,,0000*4F
$GPRMC,145800.000,A,5958.1293,N,01103.0094,E,000.00,0.0,140622,,,E*57
$GPGGA,145801.000,5958.1293,N,01103.0094,E,1,00,,103.1,M,0.0,M,,0000*4E
$GPRMC,145801.000,A,5958.1293,N,01103.0094,E,000.00,0.0,140622,,,E*56
$GPGGA,145802.000,5958.1293,N,01103.0094,E,1,00,,103.1,M,0.0,M,,0000*4D
$GPRMC,145802.000,A,5958.1293,N,01103.0094,E,000.00,0.0,140622,,,E*55
$GPGGA,145803.000,5958.1293,N,01103.0094,E,1,00,,103.1,M,0.0,M,,0000*4C
$GPRMC,145803.000,A,5958.1293,N,01103.0094,E,000.00,0.0,140622,,,E*54
$GPGGA,145804.000,5958.1293,N,01103.0093,E,1,00,,103.1,M,0.0,M,,0000*4C
$GPRMC,145804.000,A,5958.1293,N,01103.0093,E,000.00,0.0,140622,,,E*54
$GPGGA,145805.000,5958.1293,N,01103.0093,E,1,00,,103.1,M,0.0,M,,0000*4D
$GPRMC,145805.000,A,5958.1293,N,01103.0093,E,000.00,0.0,140622,,,E*55
$GPGGA,145806.000,5958.1293,N,01103.0093,E,1,00,,103.1,M,0.0,M,,0000*4E
$GPRMC,145806.000,A,5958.1293,N,01103.0093,E,000.00,0.0,140622,,,E*56
$GPGGA,145807.000,5958.1293,N,01103.0093,E,1,00,,103.1,M,0.0,M,,0000*4F
$GPRMC,145807.000,A,5958.1293,N,01103.0093,E,000.00,0.0,140622,,,E*57
$GPGGA,145808.000,5958.1293,N,01103.0093,E,1,00,,103.1,M,0.0,M,,0000*40
$GPRMC,145808.000,A,5958.1293,N,01103.0093,E,000.00,0.0,140622,,,E*58
$GPGGA,145809.000,5958.1293,N,01103.0093,E,1,00,,103.1,M,0.0,M,,0000*41
$GPRMC,145809.000,A,5958.1293,N,01103.0093,E,000.00,0.0,140622,,,E*59
$GPGGA,145810.000,5958.1293,N,01103.0093,E,1,00,,103.1,M,0.0,M,,0000*49
$GPRMC,145810.000,A,5958.1293,N,01103.0093,E,000.00,0.0,140622,,,E*51
$GPGGA,145811.000,5958.1293,N,01103.0093,E,1,00,,103.1,M,0.0,M,,0000*48
$GPRMC,145811.000,A,5958.1293,N,01103.0093,E,000.00,0.0,140622,,,E*50
$GPGGA,145812.000,5958.1293,N,01103.0093,E,1,00,,103.1,M,0.0,M,,0000*4B
$GPRMC,145812.000,A,5958.1293,N,01103.0093,E,000.00,0.0,140622,,,E*53
$GPGGA,145813.000,5958.1293,N,01103.0093,E,1,00,,103.1,M,0.0,M,,0000*4A
$GPRMC,145813.000,A,5958.1293,N,01103.0093,E,000.00,0.0,140622,,,E*52
$GPGGA,145814.000,5958.1293,N,01103.0093,E,1,00,,103.1,M,0.0,M,,0000*4D
$GPRMC,145814.000,A,5958.1293,N,01103.0093,E,000.00,0.0,140622,,,E*55
$GPGGA,145815.000,5958.1293,N,01103.0093,E,1,00,,103.1,M,0.0,M,,0000*4C
$GPRMC,145815.000,A,5958.1293,N,01103.0093,E,000.00,0.0,140622,,,E*54
$GPGGA,145816.000,5958.1293,N,01103.0093,E,1,00,,103.1,M,0.0,M,,0000*4F
$GPRMC,145816.000,A,5958.1293,N,01103.0093,E,000.00,0.0,140622,,,E*57
$GPGGA,145817.000,5958.1293,N,01103.0093,E,1,00,,103.1,M,0.0,M,,0000*4E
$GPRMC,145817.000,A,5958.1293,N,01103.0093,E,000.00,0.0,140622,,,E*56
$GPGGA,145818.000,5958.1293,N,01103.0093,E,1,00,,103.1,M,0.0,M,,0000*41
$GPRMC,145818.000,A,5958.1293,N,01103.0093,E,000.00,0.0,140622,,,E*59
$GPGGA,145819.000,5958.1293,N,01103.0093,E,1,00,,103.2,M,0.0,M,,0000*43
$GPRMC,145819.000,A,5958.1293,N,01103.0093,E,000.00,0.0,140622,,,E*58
$GPGGA,145820.000,5958.1293,N,01103.0093,E,1,00,,103.2,M,0.0,M,,0000*49
$GPRMC,145820.000,A,5958.1293,N,01103.0093,E,000.00,0.0,140622,,,E*52
$GPGGA,145821.000,5958.1293,N,01103.0093,E,1,00,,103.2,M,0.0,M,,0000*48
$GPRMC,145821.000,A,5958.1293,N,01103.0093,E,000.00,0.0,140622,,,E*53
$GPGGA,145822.000,5958.1293,N,01103.0093,E,1,00,,103.2,M,0.0,M,,0000*4B
$GPRMC,145822.000,A,5958.1293,N,01103.0093,E,000.00,0.0,140622,,,E*50
$GPGGA,145823.000,5958.1293,N,01103.0093,E,1,00,,103.2,M,0.0,M,,0000*4A
$GPRMC,145823.000,A,5958.1293,N,01103.0093,E,000.00,0.0,140622,,,E*51
$GPGGA,145824.000,5958.1293,N,01103.0093,E,1,00,,103.2,M,0.0,M,,0000*4D
$GPRMC,145824.000,A,5958.1293,N,01103.0093,E,000.00,0.0,140622,,,E*56
$GPGGA,145825.000,5958.1293,N,01103.0093,E,1,00,,103.2,M,0.0,M,,0000*4C
$GPRMC,145825.000,A,5958.1293,N,01103.0093,E,000.00,0.0,140622,,,E*57
$GPGGA,145826.000,5958.1293,N,01103.0093,E,1,00,,103.3,M,0.0,M,,0000*4E
$GPRMC,145826.000,A,5958.1293,N,01103.0093,E,000.00,0.0,140622,,,E*54
$GPGGA,145827.000,5958.1293,N,01103.0093,E,1,00,,103.2,M,0.0,M,,0000*4E
$GPRMC,145827.000,A,5958.1293,N,01103.0093,E,000.00,0.0,140622,,,E*55
$GPGGA,145828.000,5958.1293,N,01103.0093,E,1,00,,103.3,M,0.0,M,,0000*40
$GPRMC,145828.000,A,5958.1293,N,01103.0093,E,000.00,0.0,140622,,,E*5A
$GPGGA,145829.000,5958.1293,N,01103.0093,E,1,00,,103.3,M,0.0,M,,0000*41
$GPRMC,145829.000,A,5958.1293,N,01103.0093,E,000.00,0.0,140622,,,E*5B
$GPGGA,145830.000,5958.1293,N,01103.0093,E,1,00,,103.3,M,0.0,M,,0000*49
$GPRMC,145830.000,A,5958.1293,N,01103.0093,E,000.00,0.0,140622,,,E*53
$GPGGA,145831.000,5958.1293,N,01103.0093,E,1,00,,103.3,M,0.0,M,,0000*48
$GPRMC,145831.000,A,5958.1293,N,01103.0093,E,000.00,0.0,140622,,,E*52
$GPGGA,145832.000,5958.1293,N,01103.0093,E,1,00,,103.4,M,0.0,M,,0000*4C
$GPRMC,145832.000,A,5958.1293,N,01103.0093,E,000.00,0.0,140622,,,E*51
$GPGGA,145833.000,5958.1293,N,01103.0093,E,1,00,,103.4,M,0.0,M,,0000*4D
$GPRMC,145833.000,A,5958.1293,N,01103.0093,E,000.00,0.0,140622,,,E*50
$GPGGA,145834.000,5958.1293,N,01103.0093,E,1,00,,103.4,M,0.0,M,,0000*4A
$GPRMC,145834.000,A,5958.1293,N,01103.0093,E,000.00,0.0,140622,,,E*57
$GPGGA,145835.000,5958.1293,N,01103.0093,E,1,00,,103.4,M,0.0,M,,0000*4B
$GPRMC,145835.000,A,5958.1293,N,01103.0093,E,000.00,0.0,140622,,,E*56
$GPGGA,145836.000,5958.1293,N,01103.0093,E,1,00,,103.4,M,0.0,M,,0000*48
$GPRMC,145836.000,A,5958.1293,N,01103.0093,E,000.00,0.0,140622,,,E*55
$GPGGA,145837.000,5958.1293,N,01103.0093,E,1,00,,103.5,M,0.0,M,,0000*48
$GPRMC,145837.000,A,5958.1293,N,01103.0093,E,000.00,0.0,140622,,,E*54
$GPGGA,145838.000,5958.1293,N,01103.0093,E,1,00,,103.5,M,0.0,M,,0000*47
$GPRMC,145838.000,A,5958.1293,N,01103.0093,E,000.00,0.0,140622,,,E*5B
$GPGGA,145839.000,5958.1293,N,01103.0093,E,1,00,,103.5,M,0.0,M,,0000*46
$GPRMC,145839.000,A,5958.1293,N,01103.0093,E,000.00,0.0,140622,,,E*5A
$GPGGA,145840.000,5958.1293,N,01103.0094,E,1,00,,103.5,M,0.0,M,,0000*4F
$GPRMC,145840.000,A,5958.1293,N,01103.0094,E,000.00,0.0,140622,,,E*53
$GPGGA,145841.000,5958.1293,N,01103.0094,E,1,00,,103.6,M,0.0,M,,0000*4D
$GPRMC,145841.000,A,5958.1293,N,01103.0094,E,000.00,0.0,140622,,,E*52
$GPGGA,145842.000,5958.1293,N,01103.0094,E,1,00,,103.6,M,0.0,M,,0000*4E
$GPRMC,145842.000,A,5958.1293,N,01103.0094,E,000.00,0.0,140622,,,E*51
$GPGGA,145843.000,5958.1293,N,01103.0094,E,1,00,,103.6,M,0.0,M,,0000*4F
$GPRMC,145843.000,A,5958.1293,N,01103.0094,E,000.00,0.0,140622,,,E*50
$GPGGA,145844.000,5958.1293,N,01103.0094,E,1,00,,103.6,M,0.0,M,,0000*48
$GPRMC,145844.000,A,5958.1293,N,01103.0094,E,000.00,0.0,140622,,,E*57
$GPGGA,145845.000,5958.1293,N,01103.0094,E,1,00,,103.7,M,0.0,M,,0000*48
$GPRMC,145845.000,A,5958.1293,N,01103.0094,E,000.00,0.0,140622,,,E*56
$GPGGA,145846.000,5958.1293,N,01103.0094,E,1,00,,103.7,M,0.0,M,,0000*4B
$GPRMC,145846.000,A,5958.1293,N,01103.0094,E,000.00,0.0,140622,,,E*55
$GPGGA,145847.000,5958.1293,N,01103.0094,E,1,00,,103.7,M,0.0,M,,0000*4A
$GPRMC,145847.000,A,5958.1293,N,01103.0094,E,000.00,0.0,140622,,,E*54
$GPGGA,145848.000,5958.1293,N,01103.0094,E,1,00,,103.7,M,0.0,M,,0000*45
$GPRMC,145848.000,A,5958.1293,N,01103.0094,E,000.00,0.0,140622,,,E*5B
$GPGGA,145849.000,5958.1293,N,01103.0094,E,1,00,,103.7,M,0.0,M,,0000*44
$GPRMC,145849.000,A,5958.1293,N,01103.0094,E,000.00,0.0,140622,,,E*5A
$GPGGA,145850.000,5958.1293,N,01103.0095,E,1,00,,103.7,M,0.0,M,,0000*4D
$GPRMC,145850.000,A,5958.1293,N,01103.0095,E,000.00,0.0,140622,,,E*53
$GPGGA,145851.000,5958.1293,N,01103.0095,E,1,00,,103.8,M,0.0,M,,0000*43
$GPRMC,145851.000,A,5958.1293,N,01103.0095,E,000.00,0.0,140622,,,E*52
$GPGGA,145852.000,5958.1293,N,01103.0095,E,1,00,,103.8,M,0.0,M,,0000*40
$GPRMC,145852.000,A,5958.1293,N,01103.0095,E,000.00,0.0,140622,,,E*51
$GPGGA,145853.000,5958.1293,N,01103.0095,E,1,00,,103.8,M,0.0,M,,0000*41
$GPRMC,145853.000,A,5958.1293,N,01103.0095,E,000.00,0.0,140622,,,E*50
$GPGGA,145854.000,5958.1293,N,01103.0095,E,1,00,,103.8,M,0.0,M,,0000*46
$GPRMC,145854.000,A,5958.1293,N,01103.0095,E,000.00,0.0,140622,,,E*57
$GPGGA,145855.000,5958.1293,N,01103.0095,E,1,00,,103.8,M,0.0,M,,0000*47
$GPRMC,145855.000,A,5958.1293,N,01103.0095,E,000.00,0.0,140622,,,E*56
$GPGGA,145856.000,5958.1293,N,01103.0095,E,1,00,,103.8,M,0.0,M,,0000*44
$GPRMC,145856.000,A,5958.1293,N,01103.0095,E,000.00,0.0,140622,,,E*55
$GPGGA,145857.000,5958.1293,N,01103.0095,E,1,00,,103.8,M,0.0,M,,0000*45
$GPRMC,145857.000,A,5958.1293,N,01103.0095,E,000.00,0.0,140622,,,E*54
$GPGGA,145858.000,5958.1293,N,01103.0095,E,1,00,,103.8,M,0.0,M,,0000*4A
$GPRMC,145858.000,A,5958.1293,N,01103.0095,E,000.00,0.0,140622,,,E*5B
$GPGGA,145859.000,5958.1293,N,01103.0095,E,1,00,,103.8,M,0.0,M,,0000*4B
$GPRMC,145859.000,A,5958.1293,N,01103.0095,E,000.00,0.0,140622,,,E*5A
$GPGGA,145900.000,5958.1293,N,01103.0096,E,1,00,,103.9,M,0.0,M,,0000*44
$GPRMC,145900.000,A,5958.1293,N,01103.0096,E,000.00,0.0,140622,,,E*54
$GPGGA,145901.000,5958.1293,N,01103.0096,E,1,00,,103.9,M,0.0,M,,0000*45
$GPRMC,145901.000,A,5958.1293,N,01103.0096,E,000.00,0.0,140622,,,E*55
$GPGGA,145902.000,5958.1293,N,01103.0096,E,1,00,,103.9,M,0.0,M,,0000*46
$GPRMC,145902.000,A,5958.1293,N,01103.0096,E,000.00,0.0,140622,,,E*56
$GPGGA,145903.000,5958.1293,N,01103.0096,E,1,00,,103.9,M,0.0,M,,0000*47
$GPRMC,145903.000,A,5958.1293,N,01103.0096,E,000.00,0.0,140622,,,E*57
$GPGGA,145904.000,5958.1293,N,01103.0096,E,1,00,,103.9,M,0.0,M,,0000*40
$GPRMC,145904.000,A,5958.1293,N,01103.0096,E,000.00,0.0,140622,,,E*50
$GPGGA,145905.000,5958.1293,N,01103.0096,E,1,00,,103.9,M,0.0,M,,0000*41
$GPRMC,145905.000,A,5958.1293,N,01103.0096,E,000.00,0.0,140622,,,E*51
$GPGGA,145906.000,5958.1293,N,01103.0096,E,1,00,,103.9,M,0.0,M,,0000*42
$GPRMC,145906.000,A,5958.1293,N,01103.0096,E,000.00,0.0,140622,,,E*52
$GPGGA,145907.000,5958.1293,N,01103.0096,E,1,00,,103.9,M,0.0,M,,0000*43
$GPRMC,145907.000,A,5958.1293,N,01103.0096,E,000.00,0.0,140622,,,E*53
$GPGGA,145908.000,5958.1293,N,01103.0096,E,1,00,,103.9,M,0.0,M,,0000*4C
$GPRMC,145908.000,A,5958.1293,N,01103.0096,E,000.00,0.0,140622,,,E*5C
$GPGGA,145909.000,5958.1293,N,01103.0096,E,1,00,,103.9,M,0.0,M,,0000*4D
$GPRMC,145909.000,A,5958.1293,N,01103.0096,E,000.00,0.0,140622,,,E*5D
$GPGGA,145910.000,5958.1293,N,01103.0096,E,1,00,,103.9,M,0.0,M,,0000*45
$GPRMC,145910.000,A,5958.1293,N,01103.0096,E,000.00,0.0,140622,,,E*55
$GPGGA,145911.000,5958.1293,N,01103.0096,E,1,00,,103.9,M,0.0,M,,0000*44
$GPRMC,145911.000,A,5958.1293,N,01103.0096,E,000.00,0.0,140622,,,E*54
$GPGGA,145912.000,5958.1293,N,01103.0096,E,1,00,,103.9,M,0.0,M,,0000*47
$GPRMC,145912.000,A,5958.1293,N,01103.0096,E,000.00,0.0,140622,,,E*57
$GPGGA,145913.000,5958.1293,N,01103.0096,E,1,00,,104.0,M,0.0,M,,0000*48
$GPRMC,145913.000,A,5958.1293,N,01103.0096,E,000.00,0.0,140622,,,E*56
$GPGGA,145914.000,5958.1293,N,01103.0096,E,1,00,,104.0,M,0.0,M,,0000*4F
$GPRMC,145914.000,A,5958.1293,N,01103.0096,E,000.00,0.0,140622,,,E*51
$GPGGA,145915.000,5958.1293,N,01103.0097,E,1,00,,104.0,M,0.0,M,,0000*4F
$GPRMC,145915.000,A,5958.1293,N,01103.0097,E,000.00,0.0,140622,,,E*51
$GPGGA,145916.000,5958.1293,N,01103.0097,E,1,00,,104.0,M,0.0,M,,0000*4C
$GPRMC,145916.000,A,5958.1293,N,01103.0097,E,000.00,0.0,140622,,,E*52
$GPGGA,145917.000,5958.1293,N,01103.0097,E,1,00,,104.0,M,0.0,M,,0000*4D
$GPRMC,145917.000,A,5958.1293,N,01103.0097,E,000.00,0.0,140622,,,E*53
$GPGGA,145918.000,5958.1293,N,01103.0097,E,1,00,,104.0,M,0.0,M,,0000*42
$GPRMC,145918.000,A,5958.1293,N,01103.0097,E,000.00,0.0,140622,,,E*5C
$GPGGA,145919.000,5958.1293,N,01103.0097,E,1,00,,104.0,M,0.0,M,,0000*43
$GPRMC,145919.000,A,5958.1293,N,01103.0097,E,000.00,0.0,140622,,,E*5D
$GPGGA,145920.000,5958.1293,N,01103.0097,E,1,00,,104.0,M,0.0,M,,0000*49
$GPRMC,145920.000,A,5958.1293,N,01103.0097,E,000.00,0.0,140622,,,E*57
$GPGGA,145921.000,5958.1293,N,01103.0097,E,1,00,,104.0,M,0.0,M,,0000*48
$GPRMC,145921.000,A,5958.1293,N,01103.0097,E,000.00,0.0,140622,,,E*56
$GPGGA,145922.000,5958.1293,N,01103.0097,E,1,00,,104.0,M,0.0,M,,0000*4B
$GPRMC,145922.000,A,5958.1293,N,01103.0097,E,000.00,0.0,140622,,,E*55
$GPGGA,145923.000,5958.1298,N,01103.0097,E,1,00,,104.0,M,0.0,M,,0000*41
$GPRMC,145923.000,A,5958.1298,N,01103.0097,E,000.00,0.0,140622,,,E*5F
$GPGGA,145924.000,5958.1298,N,01103.0097,E,1,00,,104.0,M,0.0,M,,0000*46
$GPRMC,145924.000,A,5958.1298,N,01103.0097,E,000.00,0.0,140622,,,E*58
$GPGGA,145925.000,5958.1298,N,01103.0097,E,1,00,,104.0,M,0.0,M,,0000*47
$GPRMC,145925.000,A,5958.1298,N,01103.0097,E,000.00,0.0,140622,,,E*59
$GPGGA,145926.000,5958.1298,N,01103.0097,E,1,00,,104.0,M,0.0,M,,0000*44
$GPRMC,145926.000,A,5958.1298,N,01103.0097,E,000.00,0.0,140622,,,E*5A
$GPGGA,145927.000,5958.1298,N,01103.0097,E,1,00,,104.0,M,0.0,M,,0000*45
$GPRMC,145927.000,A,5958.1298,N,01103.0097,E,000.00,0.0,140622,,,E*5B
$GPGGA,145928.000,5958.1298,N,01103.0097,E,1,00,,104.0,M,0.0,M,,0000*4A
$GPRMC,145928.000,A,5958.1298,N,01103.0097,E,000.00,0.0,140622,,,E*54
$GPGGA,145929.000,5958.1298,N,01103.0097,E,1,00,,104.0,M,0.0,M,,0000*4B
$GPRMC,145929.000,A,5958.1298,N,01103.0097,E,000.00,0.0,140622,,,E*55
$GPGGA,145930.000,5958.1298,N,01103.0097,E,1,00,,104.1,M,0.0,M,,0000*42
$GPRMC,145930.000,A,5958.1298,N,01103.0097,E,000.00,0.0,140622,,,E*5D
$GPGGA,145931.000,5958.1298,N,01103.0098,E,1,00,,104.0,M,0.0,M,,0000*4D
$GPRMC,145931.000,A,5958.1298,N,01103.0098,E,000.00,0.0,140622,,,E*53
$GPGGA,145932.000,5958.1298,N,01103.0098,E,1,00,,104.0,M,0.0,M,,0000*4E
$GPRMC,145932.000,A,5958.1298,N,01103.0098,E,000.00,0.0,140622,,,E*50
$GPGGA,145933.000,5958.1298,N,01103.0098,E,1,00,,104.0,M,0.0,M,,0000*4F
$GPRMC,145933.000,A,5958.1298,N,01103.0098,E,000.00,0.0,140622,,,E*51
$GPGGA,145934.000,5958.1298,N,01103.0099,E,1,00,,104.0,M,0.0,M,,0000*49
$GPRMC,145934.000,A,5958.1298,N,01103.0099,E,000.00,0.0,140622,,,E*57
$GPGGA,145935.000,5958.1298,N,01103.0099,E,1,00,,104.0,M,0.0,M,,0000*48
$GPRMC,145935.000,A,5958.1298,N,01103.0099,E,000.00,0.0,140622,,,E*56
$GPGGA,145936.000,5958.1298,N,01103.0099,E,1,00,,104.0,M,0.0,M,,0000*4B
$GPRMC,145936.000,A,5958.1298,N,01103.0099,E,000.00,0.0,140622,,,E*55
$GPGGA,145937.000,5958.1298,N,01103.0099,E,1,00,,103.9,M,0.0,M,,0000*44
$GPRMC,145937.000,A,5958.1298,N,01103.0099,E,000.00,0.0,140622,,,E*54
$GPGGA,145938.000,5958.1298,N,01103.0099,E,1,00,,103.9,M,0.0,M,,0000*4B
$GPRMC,145938.000,A,5958.1298,N,01103.0099,E,000.00,0.0,140622,,,E*5B
$GPGGA,145939.000,5958.1298,N,01103.0100,E,1,00,,103.9,M,0.0,M,,0000*4B
$GPRMC,145939.000,A,5958.1298,N,01103.0100,E,000.00,0.0,140622,,,E*5B
$GPGGA,145940.000,5958.1298,N,01103.0100,E,1,00,,103.9,M,0.0,M,,0000*45
$GPRMC,145940.000,A,5958.1298,N,01103.0100,E,000.00,0.0,140622,,,E*55
$GPGGA,145941.000,5958.1298,N,01103.0100,E,1,00,,103.9,M,0.0,M,,0000*44
$GPRMC,145941.000,A,5958.1298,N,01103.0100,E,000.00,0.0,140622,,,E*54
$GPGGA,145942.000,5958.1298,N,01103.0100,E,1,00,,103.9,M,0.0,M,,0000*47
$GPRMC,145942.000,A,5958.1298,N,01103.0100,E,000.00,0.0,140622,,,E*57
$GPGGA,145943.000,5958.1298,N,01103.0100,E,1,00,,103.8,M,0.0,M,,0000*47
$GPRMC,145943.000,A,5958.1298,N,01103.0100,E,000.00,0.0,140622,,,E*56
$GPGGA,145944.000,5958.1298,N,01103.0100,E,1,00,,103.9,M,0.0,M,,0000*41
$GPRMC,145944.000,A,5958.1298,N,01103.0100,E,000.00,0.0,140622,,,E*51
$GPGGA,145945.000,5958.1298,N,01103.0100,E,1,00,,103.9,M,0.0,M,,0000*40
$GPRMC,145945.000,A,5958.1298,N,01103.0100,E,000.00,0.0,140622,,,E*50
$GPGGA,145946.000,5958.1298,N,01103.0101,E,1,00,,103.9,M,0.0,M,,0000*42
$GPRMC,145946.000,A,5958.1298,N,01103.0101,E,000.00,0.0,140622,,,E*52
$GPGGA,145947.000,5958.1298,N,01103.0101,E,1,00,,103.9,M,0.0,M,,0000*43
$GPRMC,145947.000,A,5958.1298,N,01103.0101,E,000.00,0.0,140622,,,E*53
$GPGGA,145948.000,5958.1298,N,01103.0101,E,1,00,,103.9,M,0.0,M,,0000*4C
$GPRMC,145948.000,A,5958.1298,N,01103.0101,E,000.00,0.0,140622,,,E*5C
$GPGGA,145949.000,5958.1298,N,01103.0101,E,1,00,,103.8,M,0.0,M,,0000*4C
$GPRMC,145949.000,A,5958.1298,N,01103.0101,E,000.00,0.0,140622,,,E*5D
$GPGGA,145950.000,5958.1298,N,01103.0101,E,1,00,,103.9,M,0.0,M,,0000*45
$GPRMC,145950.000,A,5958.1298,N,01103.0101,E,000.00,0.0,140622,,,E*55
$GPGGA,145951.000,5958.1298,N,01103.0101,E,1,00,,103.9,M,0.0,M,,0000*44
$GPRMC,145951.000,A,5958.1298,N,01103.0101,E,000.00,0.0,140622,,,E*54
$GPGGA,145952.000,5958.1298,N,01103.0101,E,1,00,,103.9,M,0.0,M,,0000*47
$GPRMC,145952.000,A,5958.1298,N,01103.0101,E,000.00,0.0,140622,,,E*57
$GPGGA,145953.000,5958.1298,N,01103.0101,E,1,00,,103.9,M,0.0,M,,0000*46
$GPRMC,145953.000,A,5958.1298,N,01103.0101,E,000.00,0.0,140622,,,E*56
$GPGGA,145954.000,5958.1298,N,01103.0101,E,1,00,,103.9,M,0.0,M,,0000*41
$GPRMC,145954.000,A,5958.1298,N,01103.0101,E,000.00,0.0,140622,,,E*51
$GPGGA,145955.000,5958.1298,N,01103.0099,E,1,00,,103.9,M,0.0,M,,0000*40
$GPRMC,145955.000,A,5958.1298,N,01103.0099,E,000.00,0.0,140622,,,E*50
$GPGGA,145956.000,5958.1298,N,01103.0097,E,1,00,,104.0,M,0.0,M,,0000*43
$GPRMC,145956.000,A,5958.1298,N,01103.0097,E,000.00,0.0,140622,,,E*5D
$GPGGA,145957.000,5958.1293,N,01103.0094,E,1,00,,104.0,M,0.0,M,,0000*4A
$GPRMC,145957.000,A,5958.1293,N,01103.0094,E,000.00,0.0,140622,,,E*54
$GPGGA,145958.000,5958.1293,N,01103.0089,E,1,00,,104.2,M,0.0,M,,0000*4B
$GPRMC,145958.000,A,5958.1293,N,01103.0089,E,000.00,0.0,140622,,,E*57
$GPGGA,145959.000,5958.1293,N,01103.0082,E,1,00,,104.3,M,0.0,M,,0000*40
$GPRMC,145959.000,A,5958.1293,N,01103.0082,E,000.00,0.0,140622,,,E*5D
$GPGGA,150000.000,5958.1293,N,01103.0076,E,1,00,,104.4,M,0.0,M,,0000*4D
$GPRMC,150000.000,A,5958.1293,N,01103.0076,E,000.00,0.0,140622,,,E*57
$GPGGA,150001.000,5958.1289,N,01103.0070,E,1,00,,104.4,M,0.0,M,,0000*41
$GPRMC,150001.000,A,5958.1289,N,01103.0070,E,000.00,0.0,140622,,,E*5B
$GPGGA,150002.000,5958.1289,N,01103.0064,E,1,00,,104.5,M,0.0,M,,0000*46
